[
  {
    "name": "水神堂",
    "cate": "古建筑",
    "address": "山西省大同市广灵县水神堂",
    "latitude": "114.289889",
    "longitude": "39.755830"
  },
  {
    "name": "栗毓美墓",
    "cate": "古墓葬",
    "address": "山西省大同市浑源县栗毓美墓",
    "latitude": "113.703963",
    "longitude": "39.704373"
  },
  {
    "name": "浑源圆觉寺塔",
    "cate": "古建筑",
    "address": "山西省大同市浑源县浑源圆觉寺塔",
    "latitude": "113.692144",
    "longitude": "39.700843"
  },
  {
    "name": "律吕神祠",
    "cate": "古建筑",
    "address": "山西省大同市浑源县律吕神祠",
    "latitude": "113.658148",
    "longitude": "39.721098"
  },
  {
    "name": "浑源文庙",
    "cate": "古建筑",
    "address": "山西省大同市浑源县浑源文庙",
    "latitude": "113.689698",
    "longitude": "39.698790"
  },
  {
    "name": "悬空寺",
    "cate": "古建筑",
    "address": "山西省大同市浑源县悬空寺",
    "latitude": "113.715781",
    "longitude": "39.661139"
  },
  {
    "name": "荆庄大云寺大雄宝殿",
    "cate": "古建筑",
    "address": "山西省大同市浑源县荆庄大云寺大雄宝殿",
    "latitude": "113.612366",
    "longitude": "39.633833"
  },
  {
    "name": "浑源永安寺",
    "cate": "古建筑",
    "address": "山西省大同市浑源县浑源永安寺",
    "latitude": "113.691830",
    "longitude": "39.706485"
  },
  {
    "name": "曲回寺石像冢",
    "cate": "古遗址",
    "address": "山西省大同市灵丘县曲回寺石像冢",
    "latitude": "114.063033",
    "longitude": "39.189264"
  },
  {
    "name": "觉山寺砖塔",
    "cate": "古建筑",
    "address": "山西省大同市灵丘县觉山寺砖塔",
    "latitude": "114.234452",
    "longitude": "39.442459"
  },
  {
    "name": "平型关战役遗址",
    "cate": "近现代",
    "address": "山西省大同市灵丘县平型关战役遗址",
    "latitude": "113.965082",
    "longitude": "39.343649"
  },
  {
    "name": "大同观音堂",
    "cate": "古建筑",
    "address": "山西省大同市平城区大同观音堂",
    "latitude": "113.319143",
    "longitude": "40.072949"
  },
  {
    "name": "平城遗址",
    "cate": "古遗址",
    "address": "山西省大同市平城区平城遗址",
    "latitude": "113.319143",
    "longitude": "40.072949"
  },
  {
    "name": "方山永固陵遗址",
    "cate": "古墓葬",
    "address": "山西省大同市平城区方山永固陵遗址",
    "latitude": "113.353033",
    "longitude": "40.281582"
  },
  {
    "name": "沙岭墓群",
    "cate": "古墓葬",
    "address": "山西省大同市平城区沙岭墓群",
    "latitude": "113.345730",
    "longitude": "40.064777"
  },
  {
    "name": "大同关帝庙大殿",
    "cate": "古建筑",
    "address": "山西省大同市平城区大同关帝庙大殿",
    "latitude": "113.305914",
    "longitude": "40.091391"
  },
  {
    "name": "大同九龙壁",
    "cate": "古建筑",
    "address": "山西省大同市平城区大同九龙壁",
    "latitude": "113.303979",
    "longitude": "40.093042"
  },
  {
    "name": "善化寺",
    "cate": "古建筑",
    "address": "山西省大同市平城区善化寺",
    "latitude": "113.319143",
    "longitude": "40.072949"
  },
  {
    "name": "华严寺",
    "cate": "古建筑",
    "address": "山西省大同市平城区华严寺",
    "latitude": "113.295060",
    "longitude": "40.092531"
  },
  {
    "name": "禅房寺塔",
    "cate": "古建筑",
    "address": "山西省大同市平城区禅房寺塔",
    "latitude": "113.055590",
    "longitude": "39.950905"
  },
  {
    "name": "平城兴国寺",
    "cate": "古建筑",
    "address": "山西省大同市平城区平城兴国寺",
    "latitude": "113.298011",
    "longitude": "40.075246"
  },
  {
    "name": "大同鼓楼",
    "cate": "古建筑",
    "address": "山西省大同市平城区大同鼓楼",
    "latitude": "113.302265",
    "longitude": "40.091466"
  },
  {
    "name": "山西省立第三中学",
    "cate": "近现代",
    "address": "山西省大同市平城区山西省立第三中学",
    "latitude": "113.689774",
    "longitude": "39.688698"
  },
  {
    "name": "沙梁坡汉墓群",
    "cate": "古墓葬",
    "address": "山西省大同市天镇县沙梁坡汉墓群",
    "latitude": "114.090871",
    "longitude": "40.420870"
  },
  {
    "name": "慈云寺",
    "cate": "古建筑",
    "address": "山西省大同市天镇县慈云寺",
    "latitude": "114.090871",
    "longitude": "40.420870"
  },
  {
    "name": "许家窑遗址",
    "cate": "古遗址",
    "address": "山西省大同市阳高县许家窑遗址",
    "latitude": "113.748944",
    "longitude": "40.361059"
  },
  {
    "name": "古城堡墓群",
    "cate": "古幕葬",
    "address": "山西省大同市阳高县古城堡墓群",
    "latitude": "113.948337",
    "longitude": "40.118148"
  },
  {
    "name": "云林寺",
    "cate": "古建筑",
    "address": "山西省大同市阳高县云林寺",
    "latitude": "113.748571",
    "longitude": "40.359081"
  },
  {
    "name": "云冈石窟",
    "cate": "石窟寺\n终复型",
    "address": "山西省大同市云冈区云冈石窟",
    "latitude": "113.137763",
    "longitude": "40.113157"
  },
  {
    "name": "吴官屯石窟",
    "cate": "石窟寺\n日店\n及石刻",
    "address": "山西省大同市云冈区吴官屯石窟",
    "latitude": "113.100809",
    "longitude": "40.125613"
  },
  {
    "name": "大同煤矿万人坑",
    "cate": "近现代",
    "address": "山西省大同市云冈区大同煤矿万人坑",
    "latitude": "113.149604",
    "longitude": "40.005383"
  },
  {
    "name": "怀覃会馆",
    "cate": "古建筑",
    "address": "山西省晋城市城区怀覃会馆",
    "latitude": "112.853452",
    "longitude": "35.502480"
  },
  {
    "name": "三王村三峻庙",
    "cate": "古建筑",
    "address": "山西省晋城市高平市三王村三峻庙",
    "latitude": "112.895370",
    "longitude": "35.572804"
  },
  {
    "name": "高平嘉祥寺",
    "cate": "古建筑",
    "address": "山西省晋城市高平市高平嘉祥寺",
    "latitude": "112.988311",
    "longitude": "35.865095"
  },
  {
    "name": "大周村古寺庙建筑群",
    "cate": "古建筑",
    "address": "山西省晋城市高平市大周村古寺庙建筑群",
    "latitude": "112.789865",
    "longitude": "35.693758"
  },
  {
    "name": "董峰万寿宫",
    "cate": "古建筑",
    "address": "山西省晋城市高平市董峰万寿宫",
    "latitude": "112.754304",
    "longitude": "35.780240"
  },
  {
    "name": "仙翁庙",
    "cate": "古建筑",
    "address": "山西省晋城市高平市仙翁庙",
    "latitude": "112.923798",
    "longitude": "35.798775"
  },
  {
    "name": "建南济渎庙",
    "cate": "古建筑",
    "address": "山西省晋城市高平市建南济渎庙",
    "latitude": "113.105557",
    "longitude": "35.834429"
  },
  {
    "name": "石末宣圣庙",
    "cate": "古建筑",
    "address": "山西省晋城市高平市石末宣圣庙",
    "latitude": "113.089115",
    "longitude": "35.691775"
  },
  {
    "name": "良户玉虚观",
    "cate": "古建筑",
    "address": "山西省晋城市高平市良户玉虚观",
    "latitude": "112.778270",
    "longitude": "35.752649"
  },
  {
    "name": "南庄玉皇庙",
    "cate": "古建筑",
    "address": "山西省晋城市高平市南庄玉皇庙",
    "latitude": "112.755444",
    "longitude": "35.535465"
  },
  {
    "name": "姬氏民居",
    "cate": "古建筑",
    "address": "山西省晋城市高平市姬氏民居",
    "latitude": "113.066956",
    "longitude": "35.866376"
  },
  {
    "name": "崇明寺",
    "cate": "古建筑",
    "address": "山西省晋城市高平市崇明寺",
    "latitude": "113.015144",
    "longitude": "35.714369"
  },
  {
    "name": "开化寺",
    "cate": "古建筑",
    "address": "山西省晋城市高平市开化寺",
    "latitude": "113.043710",
    "longitude": "35.870389"
  },
  {
    "name": "游仙寺",
    "cate": "古建筑",
    "address": "山西省晋城市高平市游仙寺",
    "latitude": "112.923798",
    "longitude": "35.798775"
  },
  {
    "name": "定林寺",
    "cate": "古建筑",
    "address": "山西省晋城市高平市定林寺",
    "latitude": "112.980773",
    "longitude": "35.780995"
  },
  {
    "name": "西李门二仙庙",
    "cate": "古建筑",
    "address": "山西省晋城市高平市西李门二仙庙",
    "latitude": "112.983970",
    "longitude": "35.702871"
  },
  {
    "name": "中坪二仙宫",
    "cate": "古建筑",
    "address": "山西省晋城市高平市中坪二仙宫",
    "latitude": "113.076617",
    "longitude": "35.806105"
  },
  {
    "name": "二郎庙",
    "cate": "古建筑",
    "address": "山西省晋城市高平市二郎庙",
    "latitude": "112.923798",
    "longitude": "35.798775"
  },
  {
    "name": "清梦观",
    "cate": "古建筑",
    "address": "山西省晋城市高平市清梦观",
    "latitude": "113.059924",
    "longitude": "35.839131"
  },
  {
    "name": "古中庙",
    "cate": "古建筑",
    "address": "山西省晋城市高平市古中庙",
    "latitude": "112.947329",
    "longitude": "35.886893"
  },
  {
    "name": "团东清化寺",
    "cate": "古建筑",
    "address": "山西省晋城市高平市团东清化寺",
    "latitude": "112.973261",
    "longitude": "35.878309"
  },
  {
    "name": "高平铁佛寺",
    "cate": "古建筑",
    "address": "山西省晋城市高平市高平铁佛寺",
    "latitude": "112.923798",
    "longitude": "35.798775"
  },
  {
    "name": "羊头山石窟",
    "cate": "石窟寺\n及石刻",
    "address": "山西省晋城市高平市羊头山石窟",
    "latitude": "112.962150",
    "longitude": "35.921322"
  },
  {
    "name": "塔水河遗址",
    "cate": "古遗址",
    "address": "山西省晋城市陵川县塔水河遗址",
    "latitude": "113.280755",
    "longitude": "35.775239"
  },
  {
    "name": "南召文庙",
    "cate": "古建筑",
    "address": "山西省晋城市陵川县南召文庙",
    "latitude": "113.320266",
    "longitude": "35.812249"
  },
  {
    "name": "北马玉皇庙",
    "cate": "古建筑",
    "address": "山西省晋城市陵川县北马玉皇庙",
    "latitude": "113.205220",
    "longitude": "35.593459"
  },
  {
    "name": "南北吉祥寺",
    "cate": "古建筑",
    "address": "山西省晋城市陵川县南北吉祥寺",
    "latitude": "113.280755",
    "longitude": "35.775239"
  },
  {
    "name": "西溪二仙庙",
    "cate": "古建筑",
    "address": "山西省晋城市陵川县西溪二仙庙",
    "latitude": "113.255681",
    "longitude": "35.764898"
  },
  {
    "name": "龙岩寺",
    "cate": "古建筑",
    "address": "山西省晋城市陵川县龙岩寺",
    "latitude": "113.192430",
    "longitude": "35.763072"
  },
  {
    "name": "崔府君庙",
    "cate": "古建筑",
    "address": "山西省晋城市陵川县崔府君庙",
    "latitude": "113.123474",
    "longitude": "35.799580"
  },
  {
    "name": "小会岭二仙庙",
    "cate": "古建筑",
    "address": "山西省晋城市陵川县小会岭二仙庙",
    "latitude": "113.175240",
    "longitude": "35.678287"
  },
  {
    "name": "玉泉东岳庙",
    "cate": "古建筑",
    "address": "山西省晋城市陵川县玉泉东岳庙",
    "latitude": "113.196760",
    "longitude": "35.682170"
  },
  {
    "name": "石掌玉皇庙",
    "cate": "古建筑",
    "address": "山西省晋城市陵川县石掌玉皇庙",
    "latitude": "113.344581",
    "longitude": "35.725546"
  },
  {
    "name": "白玉宫",
    "cate": "古建筑",
    "address": "山西省晋城市陵川县白玉宫",
    "latitude": "113.280755",
    "longitude": "35.775239"
  },
  {
    "name": "南神头二仙庙",
    "cate": "古建筑",
    "address": "山西省晋城市陵川县南神头二仙庙",
    "latitude": "113.321414",
    "longitude": "35.752416"
  },
  {
    "name": "寺润三教堂",
    "cate": "古建筑",
    "address": "山西省晋城市陵川县寺润三教堂",
    "latitude": "113.186889",
    "longitude": "35.830251"
  },
  {
    "name": "三圣瑞现塔",
    "cate": "古建筑",
    "address": "山西省晋城市陵川县三圣瑞现塔",
    "latitude": "113.061546",
    "longitude": "35.625202"
  },
  {
    "name": "崇安寺",
    "cate": "古建筑",
    "address": "山西省晋城市陵川县崇安寺",
    "latitude": "113.277954",
    "longitude": "35.777703"
  },
  {
    "name": "田庄全神庙",
    "cate": "古建筑",
    "address": "山西省晋城市陵川县田庄全神庙",
    "latitude": "113.180873",
    "longitude": "35.734825"
  },
  {
    "name": "柳氏民居",
    "cate": "古建筑",
    "address": "山西省晋城市沁水县柳氏民居",
    "latitude": "112.149304",
    "longitude": "35.559447"
  },
  {
    "name": "湘峪古堡",
    "cate": "古建筑",
    "address": "山西省晋城市沁水县湘峪古堡",
    "latitude": "112.592590",
    "longitude": "35.566430"
  },
  {
    "name": "郭壁村古建筑群",
    "cate": "古建筑",
    "address": "山西省晋城市沁水县郭壁村古建筑群",
    "latitude": "112.186726",
    "longitude": "35.690119"
  },
  {
    "name": "窦庄古建筑群",
    "cate": "古建筑",
    "address": "山西省晋城市沁水县窦庄古建筑群",
    "latitude": "112.523857",
    "longitude": "35.643964"
  },
  {
    "name": "陈廷敬故居",
    "cate": "古建筑",
    "address": "山西省晋城市阳城县陈廷敬故居",
    "latitude": "112.414798",
    "longitude": "35.486275"
  },
  {
    "name": "下交汤帝庙",
    "cate": "古建筑",
    "address": "山西省晋城市阳城县下交汤帝庙",
    "latitude": "112.363215",
    "longitude": "35.414293"
  },
  {
    "name": "开福寺",
    "cate": "古建筑",
    "address": "山西省晋城市阳城县开福寺",
    "latitude": "112.414798",
    "longitude": "35.486275"
  },
  {
    "name": "润城东岳庙",
    "cate": "古建筑",
    "address": "山西省晋城市阳城县润城东岳庙",
    "latitude": "112.513177",
    "longitude": "35.478621"
  },
  {
    "name": "海会寺",
    "cate": "古建筑",
    "address": "山西省晋城市阳城县海会寺",
    "latitude": "112.571554",
    "longitude": "35.496324"
  },
  {
    "name": "郭峪村古建筑群",
    "cate": "古建筑",
    "address": "山西省晋城市阳城县郭峪村古建筑群",
    "latitude": "112.575357",
    "longitude": "35.504638"
  },
  {
    "name": "砥泊城",
    "cate": "古建筑",
    "address": "山西省晋城市阳城县砥泊城",
    "latitude": "112.414798",
    "longitude": "35.486275"
  },
  {
    "name": "阳城文庙",
    "cate": "古建筑",
    "address": "山西省晋城市阳城县阳城文庙",
    "latitude": "112.414798",
    "longitude": "35.486275"
  },
  {
    "name": "阳城寿圣寺及琉璃塔",
    "cate": "古建筑",
    "address": "山西省晋城市阳城县阳城寿圣寺及琉璃塔",
    "latitude": "112.318820",
    "longitude": "35.605063"
  },
  {
    "name": "水东崔府君庙",
    "cate": "古建筑",
    "address": "山西省晋城市泽州县水东崔府君庙",
    "latitude": "112.971807",
    "longitude": "35.531033"
  },
  {
    "name": "坪上汤帝庙",
    "cate": "古建筑",
    "address": "山西省晋城市泽州县坪上汤帝庙",
    "latitude": "112.788303",
    "longitude": "35.668653"
  },
  {
    "name": "府城关帝庙",
    "cate": "古建筑",
    "address": "山西省晋城市泽州县府城关帝庙",
    "latitude": "112.948617",
    "longitude": "35.542166"
  },
  {
    "name": "薛庄玉皇庙",
    "cate": "古建筑",
    "address": "山西省晋城市泽州县薛庄玉皇庙",
    "latitude": "112.956753",
    "longitude": "35.596128"
  },
  {
    "name": "高都景德寺",
    "cate": "古建筑",
    "address": "山西省晋城市泽州县高都景德寺",
    "latitude": "112.959401",
    "longitude": "35.593951"
  },
  {
    "name": "史村东岳庙",
    "cate": "古建筑",
    "address": "山西省晋城市泽州县史村东岳庙",
    "latitude": "112.724996",
    "longitude": "35.608473"
  },
  {
    "name": "西顿济渎庙",
    "cate": "古建筑",
    "address": "山西省晋城市泽州县西顿济渎庙",
    "latitude": "112.933942",
    "longitude": "35.607858"
  },
  {
    "name": "河底成汤庙",
    "cate": "古建筑",
    "address": "山西省晋城市泽州县河底成汤庙",
    "latitude": "112.775036",
    "longitude": "35.643678"
  },
  {
    "name": "尹西东岳庙",
    "cate": "古建筑",
    "address": "山西省晋城市泽州县尹西东岳庙",
    "latitude": "112.961339",
    "longitude": "35.595571"
  },
  {
    "name": "坛岭头岱庙",
    "cate": "古建筑",
    "address": "山西省晋城市泽州县坛岭头岱庙",
    "latitude": "112.730684",
    "longitude": "35.418661"
  },
  {
    "name": "川底佛堂",
    "cate": "古建筑",
    "address": "山西省晋城市泽州县川底佛堂",
    "latitude": "112.686217",
    "longitude": "35.526596"
  },
  {
    "name": "青莲寺",
    "cate": "古建筑",
    "address": "山西省晋城市泽州县青莲寺",
    "latitude": "112.995673",
    "longitude": "35.457773"
  },
  {
    "name": "玉皇庙",
    "cate": "古建筑",
    "address": "山西省晋城市泽州县玉皇庙",
    "latitude": "112.943140",
    "longitude": "35.545898"
  },
  {
    "name": "晋城二仙庙",
    "cate": "古建筑",
    "address": "山西省晋城市泽州县晋城二仙庙",
    "latitude": "112.972667",
    "longitude": "35.499791"
  },
  {
    "name": "泽州岱庙",
    "cate": "古建筑",
    "address": "山西省晋城市泽州县泽州岱庙",
    "latitude": "112.730684",
    "longitude": "35.418661"
  },
  {
    "name": "北义城玉皇庙",
    "cate": "古建筑",
    "address": "山西省晋城市泽州县北义城玉皇庙",
    "latitude": "112.956753",
    "longitude": "35.596128"
  },
  {
    "name": "周村东岳庙",
    "cate": "古建筑",
    "address": "山西省晋城市泽州县周村东岳庙",
    "latitude": "112.626417",
    "longitude": "35.475240"
  },
  {
    "name": "大阳汤帝庙",
    "cate": "古建筑",
    "address": "山西省晋城市泽州县大阳汤帝庙",
    "latitude": "112.788303",
    "longitude": "35.668653"
  },
  {
    "name": "泽州崇寿寺",
    "cate": "古建筑",
    "address": "山西省晋城市泽州县泽州崇寿寺",
    "latitude": "112.874170",
    "longitude": "35.675459"
  },
  {
    "name": "碧落寺",
    "cate": "石窟寺\n及石刻",
    "address": "山西省晋城市泽州县碧落寺",
    "latitude": "112.815150",
    "longitude": "35.559866"
  },
  {
    "name": "懿济圣母庙",
    "cate": "古建筑",
    "address": "山西省晋中市和顺县懿济圣母庙",
    "latitude": "113.711687",
    "longitude": "37.273335"
  },
  {
    "name": "洪山窑址",
    "cate": "古遗址",
    "address": "山西省晋中市介休市洪山窑址",
    "latitude": "111.978156",
    "longitude": "37.050290"
  },
  {
    "name": "云峰寺石佛殿",
    "cate": "古建筑",
    "address": "山西省晋中市介休市云峰寺石佛殿",
    "latitude": "111.975972",
    "longitude": "36.873204"
  },
  {
    "name": "介休后土庙",
    "cate": "古建筑",
    "address": "山西省晋中市介休市介休后土庙",
    "latitude": "111.917608",
    "longitude": "37.029839"
  },
  {
    "name": "介休源神庙",
    "cate": "古建筑",
    "address": "山西省晋中市介休市介休源神庙",
    "latitude": "112.039404",
    "longitude": "37.029557"
  },
  {
    "name": "介休城隍庙",
    "cate": "古建筑",
    "address": "山西省晋中市介休市介休城隍庙",
    "latitude": "111.925518",
    "longitude": "37.030135"
  },
  {
    "name": "袄神楼",
    "cate": "古建筑",
    "address": "山西省晋中市介休市袄神楼",
    "latitude": "111.916451",
    "longitude": "37.027538"
  },
  {
    "name": "回銮寺",
    "cate": "古建筑",
    "address": "山西省晋中市介休市回銮寺",
    "latitude": "111.931083",
    "longitude": "36.894343"
  },
  {
    "name": "张壁古堡",
    "cate": "古建筑",
    "address": "山西省晋中市介休市张壁古堡",
    "latitude": "111.976939",
    "longitude": "36.967587"
  },
  {
    "name": "太和岩牌楼",
    "cate": "古建筑",
    "address": "山西省晋中市介休市太和岩牌楼",
    "latitude": "111.916451",
    "longitude": "37.027538"
  },
  {
    "name": "介休五岳庙",
    "cate": "古建筑",
    "address": "山西省晋中市介休市介休五岳庙",
    "latitude": "111.925023",
    "longitude": "37.027043"
  },
  {
    "name": "介休东岳庙",
    "cate": "古建筑",
    "address": "山西省晋中市介休市介休东岳庙",
    "latitude": "111.939733",
    "longitude": "36.939596"
  },
  {
    "name": "旌介遗址",
    "cate": "古遗址",
    "address": "山西省晋中市灵石县旌介遗址",
    "latitude": "111.908067",
    "longitude": "36.896639"
  },
  {
    "name": "静升文庙",
    "cate": "古建筑",
    "address": "山西省晋中市灵石县静升文庙",
    "latitude": "111.876330",
    "longitude": "36.895250"
  },
  {
    "name": "资寿寺",
    "cate": "古建筑",
    "address": "山西省晋中市灵石县资寿寺",
    "latitude": "111.835529",
    "longitude": "36.891239"
  },
  {
    "name": "晋祠庙",
    "cate": "古建筑",
    "address": "山西省晋中市灵石县晋祠庙",
    "latitude": "111.885437",
    "longitude": "36.872567"
  },
  {
    "name": "灵石后土庙",
    "cate": "古建筑",
    "address": "山西省晋中市灵石县灵石后土庙",
    "latitude": "111.869567",
    "longitude": "36.892092"
  },
  {
    "name": "王家大院",
    "cate": "古建筑",
    "address": "山西省晋中市灵石县王家大院",
    "latitude": "111.875940",
    "longitude": "36.895415"
  },
  {
    "name": "北依涧永福寺过殿",
    "cate": "古建筑",
    "address": "山西省晋中市平遥县北依涧永福寺过殿",
    "latitude": "112.332765",
    "longitude": "37.220690"
  },
  {
    "name": "梁家滩白云寺",
    "cate": "古建筑",
    "address": "山西省晋中市平遥县梁家滩白云寺",
    "latitude": "112.251765",
    "longitude": "37.078646"
  },
  {
    "name": "平遥惠济桥",
    "cate": "古建筑",
    "address": "山西省晋中市平遥县平遥惠济桥",
    "latitude": "112.195288",
    "longitude": "37.209881"
  },
  {
    "name": "南政隆福寺",
    "cate": "古建筑",
    "address": "山西省晋中市平遥县南政隆福寺",
    "latitude": "112.167637",
    "longitude": "37.236447"
  },
  {
    "name": "干坑南神庙",
    "cate": "古建筑",
    "address": "山西省晋中市平遥县干坑南神庙",
    "latitude": "112.197645",
    "longitude": "37.181581"
  },
  {
    "name": "襄垣慈胜寺",
    "cate": "古建筑",
    "address": "山西省晋中市平遥县襄垣慈胜寺",
    "latitude": "112.289993",
    "longitude": "37.272757"
  },
  {
    "name": "雷履泰旧居",
    "cate": "古建筑",
    "address": "山西省晋中市平遥县雷履泰旧居",
    "latitude": "112.175825",
    "longitude": "37.189614"
  },
  {
    "name": "平遥市楼",
    "cate": "古建筑",
    "address": "山西省晋中市平遥县平遥市楼",
    "latitude": "112.185542",
    "longitude": "37.204332"
  },
  {
    "name": "镇国寺",
    "cate": "古建筑",
    "address": "山西省晋中市平遥县镇国寺",
    "latitude": "112.276749",
    "longitude": "37.285973"
  },
  {
    "name": "平遥城墙",
    "cate": "古建筑",
    "address": "山西省晋中市平遥县平遥城墙",
    "latitude": "112.187467",
    "longitude": "37.199050"
  },
  {
    "name": "双林寺",
    "cate": "古建筑",
    "address": "山西省晋中市平遥县双林寺",
    "latitude": "112.131544",
    "longitude": "37.171457"
  },
  {
    "name": "慈相寺",
    "cate": "古建筑",
    "address": "山西省晋中市平遥县慈相寺",
    "latitude": "112.289226",
    "longitude": "37.240769"
  },
  {
    "name": "平遥文庙",
    "cate": "古建筑",
    "address": "山西省晋中市平遥县平遥文庙",
    "latitude": "112.190363",
    "longitude": "37.200357"
  },
  {
    "name": "平遥清凉寺",
    "cate": "古建筑",
    "address": "山西省晋中市平遥县平遥清凉寺",
    "latitude": "112.218425",
    "longitude": "37.099578"
  },
  {
    "name": "清虚观",
    "cate": "古建筑",
    "address": "山西省晋中市平遥县清虚观",
    "latitude": "112.190750",
    "longitude": "37.206616"
  },
  {
    "name": "平遥城隍庙",
    "cate": "古建筑",
    "address": "山西省晋中市平遥县平遥城隍庙",
    "latitude": "112.189152",
    "longitude": "37.202901"
  },
  {
    "name": "日升昌旧址",
    "cate": "古建筑",
    "address": "山西省晋中市平遥县日升昌旧址",
    "latitude": "112.183758",
    "longitude": "37.205379"
  },
  {
    "name": "金庄文庙",
    "cate": "古建筑",
    "address": "山西省晋中市平遥县金庄文庙",
    "latitude": "112.236154",
    "longitude": "37.197917"
  },
  {
    "name": "利应侯庙",
    "cate": "古建筑",
    "address": "山西省晋中市平遥县利应侯庙",
    "latitude": "112.275619",
    "longitude": "37.286237"
  },
  {
    "name": "长则普明寺",
    "cate": "古建筑",
    "address": "山西省晋中市平遥县长则普明寺",
    "latitude": "112.327041",
    "longitude": "37.234551"
  },
  {
    "name": "梁村遗址",
    "cate": "古遗址",
    "address": "山西省晋中市祁县梁村遗址",
    "latitude": "112.425844",
    "longitude": "37.303351"
  },
  {
    "name": "乔家大院",
    "cate": "古建筑",
    "address": "山西省晋中市祁县乔家大院",
    "latitude": "112.440959",
    "longitude": "37.407098"
  },
  {
    "name": "兴梵寺",
    "cate": "古建筑",
    "address": "山西省晋中市祁县兴梵寺",
    "latitude": "112.335226",
    "longitude": "37.358425"
  },
  {
    "name": "渠家大院",
    "cate": "古建筑",
    "address": "山西省晋中市祁县渠家大院",
    "latitude": "112.323732",
    "longitude": "37.356919"
  },
  {
    "name": "梁村洪福寺",
    "cate": "古建筑",
    "address": "山西省晋中市祁县梁村洪福寺",
    "latitude": "112.425245",
    "longitude": "37.301403"
  },
  {
    "name": "祁县镇河楼",
    "cate": "古建筑",
    "address": "山西省晋中市祁县祁县镇河楼",
    "latitude": "112.399346",
    "longitude": "37.316249"
  },
  {
    "name": "普光寺",
    "cate": "古建筑",
    "address": "山西省晋中市寿阳县普光寺",
    "latitude": "113.176373",
    "longitude": "37.895191"
  },
  {
    "name": "福田寺",
    "cate": "古建筑",
    "address": "山西省晋中市寿阳县福田寺",
    "latitude": "112.864207",
    "longitude": "37.940558"
  },
  {
    "name": "孟家沟龙泉寺",
    "cate": "古建筑",
    "address": "山西省晋中市寿阳县孟家沟龙泉寺",
    "latitude": "112.941214",
    "longitude": "37.901206"
  },
  {
    "name": "新村妙觉寺",
    "cate": "古建筑",
    "address": "山西省晋中市太谷县新村妙觉寺",
    "latitude": "112.551297",
    "longitude": "37.421392"
  },
  {
    "name": "范村圆智寺",
    "cate": "古建筑",
    "address": "山西省晋中市太谷县范村圆智寺",
    "latitude": "112.793741",
    "longitude": "37.481397"
  },
  {
    "name": "安禅寺",
    "cate": "古建筑",
    "address": "山西省晋中市太谷县安禅寺",
    "latitude": "112.551297",
    "longitude": "37.421392"
  },
  {
    "name": "无边寺",
    "cate": "古建筑",
    "address": "山西省晋中市太谷县无边寺",
    "latitude": "112.551297",
    "longitude": "37.421392"
  },
  {
    "name": "真圣寺",
    "cate": "古建筑",
    "address": "山西省晋中市太谷县真圣寺",
    "latitude": "112.830085",
    "longitude": "37.413955"
  },
  {
    "name": "光化寺",
    "cate": "古建筑",
    "address": "山西省晋中市太谷县光化寺",
    "latitude": "112.551297",
    "longitude": "37.421392"
  },
  {
    "name": "曹家大院",
    "cate": "古建筑",
    "address": "山西省晋中市太谷县曹家大院",
    "latitude": "112.513594",
    "longitude": "37.391320"
  },
  {
    "name": "净信寺",
    "cate": "古建筑",
    "address": "山西省晋中市太谷县净信寺",
    "latitude": "112.663708",
    "longitude": "37.429234"
  },
  {
    "name": "山西铭贤学校旧址",
    "cate": "近现代",
    "address": "山西省晋中市太谷县山西铭贤学校旧址",
    "latitude": "112.582240",
    "longitude": "37.423875"
  },
  {
    "name": "孔家大院",
    "cate": "近现代",
    "address": "山西省晋中市太谷县孔家大院",
    "latitude": "112.551297",
    "longitude": "37.421392"
  },
  {
    "name": "昔阳崇教寺",
    "cate": "古建筑",
    "address": "山西省晋中市昔阳县昔阳崇教寺",
    "latitude": "113.705450",
    "longitude": "37.617256"
  },
  {
    "name": "昔阳离相寺",
    "cate": "古建筑",
    "address": "山西省晋中市昔阳县昔阳离相寺",
    "latitude": "113.707151",
    "longitude": "37.612577"
  },
  {
    "name": "石马寺石窟",
    "cate": "石窟寺\n及石刻",
    "address": "山西省晋中市昔阳县石马寺石窟",
    "latitude": "113.625091",
    "longitude": "37.524187"
  },
  {
    "name": "大寨人民公社旧址",
    "cate": "近现代",
    "address": "山西省晋中市昔阳县大寨人民公社旧址",
    "latitude": "113.719856",
    "longitude": "37.569732"
  },
  {
    "name": "什贴墓群",
    "cate": "古墓葬",
    "address": "山西省晋中市榆次区什贴墓群",
    "latitude": "112.873847",
    "longitude": "37.815107"
  },
  {
    "name": "榆次城隍庙",
    "cate": "古建筑",
    "address": "山西省晋中市榆次区榆次城隍庙",
    "latitude": "112.707564",
    "longitude": "37.698637"
  },
  {
    "name": "福祥寺",
    "cate": "古建筑",
    "address": "山西省晋中市榆社县福祥寺",
    "latitude": "112.788583",
    "longitude": "37.068317"
  },
  {
    "name": "崇圣寺",
    "cate": "古建筑",
    "address": "山西省晋中市榆社县崇圣寺",
    "latitude": "112.975378",
    "longitude": "37.071209"
  },
  {
    "name": "苇则寿圣寺",
    "cate": "古建筑",
    "address": "山西省晋中市左权县苇则寿圣寺",
    "latitude": "113.532524",
    "longitude": "36.921052"
  },
  {
    "name": "寺坪普照寺大殿",
    "cate": "古建筑",
    "address": "山西省晋中市左权县寺坪普照寺大殿",
    "latitude": "113.606962",
    "longitude": "37.038672"
  },
  {
    "name": "左权文庙大成殿",
    "cate": "古建筑",
    "address": "山西省晋中市左权县左权文庙大成殿",
    "latitude": "113.371687",
    "longitude": "37.076374"
  },
  {
    "name": "八路军前方总部旧址",
    "cate": "近现代",
    "address": "山西省晋中市左权县八路军前方总部旧址",
    "latitude": "113.379412",
    "longitude": "37.082746"
  },
  {
    "name": "八路军129师司令部旧址",
    "cate": "近现代",
    "address": "山西省晋中市左权县八路军129师司令部旧址",
    "latitude": "113.379412",
    "longitude": "37.082746"
  },
  {
    "name": "麻衣寺砖塔",
    "cate": "古建筑",
    "address": "山西省临汾市安泽县麻衣寺砖塔",
    "latitude": "112.238617",
    "longitude": "36.245542"
  },
  {
    "name": "郎寨砖塔",
    "cate": "古建筑",
    "address": "山西省临汾市安泽县郎寨砖塔",
    "latitude": "112.330013",
    "longitude": "35.960155"
  },
  {
    "name": "小李村太岳行署旧址",
    "cate": "近现代",
    "address": "山西省临汾市安泽县小李村太岳行署旧址",
    "latitude": "112.490610",
    "longitude": "36.081101"
  },
  {
    "name": "师家沟古建筑群",
    "cate": "古建筑",
    "address": "山西省临汾市汾西县师家沟古建筑群",
    "latitude": "111.619180",
    "longitude": "36.627752"
  },
  {
    "name": "老君洞",
    "cate": "古建筑",
    "address": "山西省临汾市浮山县老君洞",
    "latitude": "111.848883",
    "longitude": "35.968124"
  },
  {
    "name": "热留关帝庙",
    "cate": "古建筑",
    "address": "山西省临汾市古县热留关帝庙",
    "latitude": "112.012375",
    "longitude": "36.431830"
  },
  {
    "name": "洪洞关帝庙",
    "cate": "古建筑",
    "address": "山西省临汾市洪洞县洪洞关帝庙",
    "latitude": "111.686770",
    "longitude": "36.267648"
  },
  {
    "name": "洪洞商山庙",
    "cate": "古建筑",
    "address": "山西省临汾市洪洞县洪洞商山庙",
    "latitude": "111.691551",
    "longitude": "36.363996"
  },
  {
    "name": "净石宫",
    "cate": "古建筑",
    "address": "山西省临汾市洪洞县净石宫",
    "latitude": "111.678812",
    "longitude": "36.464566"
  },
  {
    "name": "广胜寺",
    "cate": "古建筑",
    "address": "山西省临汾市洪洞县广胜寺",
    "latitude": "111.807655",
    "longitude": "36.297488"
  },
  {
    "name": "洪洞玉皇庙",
    "cate": "古建筑",
    "address": "山西省临汾市洪洞县洪洞玉皇庙",
    "latitude": "111.635807",
    "longitude": "36.291604"
  },
  {
    "name": "侯马晋国遗址",
    "cate": "古遗址",
    "address": "山西省临汾市侯马市侯马晋国遗址",
    "latitude": "111.346623",
    "longitude": "35.606132"
  },
  {
    "name": "霍州窑址",
    "cate": "古遗址",
    "address": "山西省临汾市霍州市霍州窑址",
    "latitude": "111.755111",
    "longitude": "36.569046"
  },
  {
    "name": "霍州州署大堂",
    "cate": "古建筑",
    "address": "山西省临汾市霍州市霍州州署大堂",
    "latitude": "111.755111",
    "longitude": "36.569046"
  },
  {
    "name": "霍州观音庙",
    "cate": "古建筑",
    "address": "山西省临汾市霍州市霍州观音庙",
    "latitude": "111.742911",
    "longitude": "36.566139"
  },
  {
    "name": "皇庙",
    "cate": "古建筑",
    "address": "山西省临汾市霍州市皇庙",
    "latitude": "111.755111",
    "longitude": "36.569046"
  },
  {
    "name": "霍州祝圣寺",
    "cate": "古建筑",
    "address": "山西省临汾市霍州市霍州祝圣寺",
    "latitude": "111.726633",
    "longitude": "36.570637"
  },
  {
    "name": "霍州鼓楼",
    "cate": "古建筑",
    "address": "山西省临汾市霍州市霍州鼓楼",
    "latitude": "111.723824",
    "longitude": "36.570068"
  },
  {
    "name": "柿子滩遗址",
    "cate": "古遗址",
    "address": "山西省临汾市吉县柿子滩遗址",
    "latitude": "110.519049",
    "longitude": "36.021790"
  },
  {
    "name": "挂甲山摩崖造像",
    "cate": "石窟寺\n及石刻",
    "address": "山西省临汾市吉县挂甲山摩崖造像",
    "latitude": "110.680513",
    "longitude": "36.096833"
  },
  {
    "name": "柏山东岳庙",
    "cate": "古建筑",
    "address": "山西省临汾市蒲县柏山东岳庙",
    "latitude": "111.112831",
    "longitude": "36.392227"
  },
  {
    "name": "羊舌墓地",
    "cate": "古墓葬",
    "address": "山西省临汾市曲沃县羊舌墓地",
    "latitude": "111.586029",
    "longitude": "35.705243"
  },
  {
    "name": "南林交龙泉寺",
    "cate": "古建筑",
    "address": "山西省临汾市曲沃县南林交龙泉寺",
    "latitude": "111.534017",
    "longitude": "35.584087"
  },
  {
    "name": "东许三清庙献殿",
    "cate": "古建筑",
    "address": "山西省临汾市曲沃县东许三清庙献殿",
    "latitude": "111.508627",
    "longitude": "35.687322"
  },
  {
    "name": "大悲院",
    "cate": "古建筑",
    "address": "山西省临汾市曲沃县大悲院",
    "latitude": "111.551441",
    "longitude": "35.734287"
  },
  {
    "name": "曲沃薛家大院",
    "cate": "古建筑",
    "address": "山西省临汾市曲沃县曲沃薛家大院",
    "latitude": "111.472372",
    "longitude": "35.638422"
  },
  {
    "name": "曲村-天马遗址",
    "cate": "古遗址",
    "address": "山西省临汾市曲沃县、\n翼城县曲村-天马遗址",
    "latitude": "111.568992",
    "longitude": "35.736531"
  },
  {
    "name": "隔县鼓楼",
    "cate": "古建筑",
    "address": "山西省临汾市隔县隔县鼓楼",
    "latitude": "111.059301",
    "longitude": "36.086497"
  },
  {
    "name": "千佛庵",
    "cate": "古建筑",
    "address": "山西省临汾市濕县千佛庵",
    "latitude": "110.932666",
    "longitude": "36.701443"
  },
  {
    "name": "七里脚千佛洞石窟",
    "cate": "石窟寺\n及石刻",
    "address": "山西省临汾市隔县七里脚千佛洞石窟",
    "latitude": "110.967994",
    "longitude": "36.758339"
  },
  {
    "name": "乡宁寿圣寺",
    "cate": "古建筑",
    "address": "山西省临汾市乡宁县乡宁寿圣寺",
    "latitude": "110.873100",
    "longitude": "35.978737"
  },
  {
    "name": "营里干佛洞石窟",
    "cate": "石窟寺\n及石刻",
    "address": "山西省临汾市乡宁县营里干佛洞石窟",
    "latitude": "110.888890",
    "longitude": "35.991797"
  },
  {
    "name": "丁村遗址",
    "cate": "古遗址",
    "address": "山西省临汾市襄汾县丁村遗址",
    "latitude": "111.426429",
    "longitude": "35.837689"
  },
  {
    "name": "陶寺遗址",
    "cate": "古遗址",
    "address": "山西省临汾市襄汾县陶寺遗址",
    "latitude": "111.504353",
    "longitude": "35.881549"
  },
  {
    "name": "陶寺北墓地",
    "cate": "古墓葬",
    "address": "山西省临汾市襄汾县陶寺北墓地",
    "latitude": "111.506377",
    "longitude": "35.899620"
  },
  {
    "name": "襄陵文庙大成殿",
    "cate": "古建筑",
    "address": "山西省临汾市襄汾县襄陵文庙大成殿",
    "latitude": "111.278177",
    "longitude": "35.818890"
  },
  {
    "name": "灵光寺琉璃塔",
    "cate": "古建筑",
    "address": "山西省临汾市襄汾县灵光寺琉璃塔",
    "latitude": "111.504730",
    "longitude": "35.958044"
  },
  {
    "name": "丁村民宅",
    "cate": "古建筑",
    "address": "山西省临汾市襄汾县丁村民宅",
    "latitude": "111.441725",
    "longitude": "35.876293"
  },
  {
    "name": "汾城古建筑群",
    "cate": "古建筑",
    "address": "山西省临汾市襄汾县汾城古建筑群",
    "latitude": "111.278165",
    "longitude": "35.818875"
  },
  {
    "name": "普净寺",
    "cate": "古建筑",
    "address": "山西省临汾市襄汾县普净寺",
    "latitude": "111.269044",
    "longitude": "35.691458"
  },
  {
    "name": "牛王庙戏台",
    "cate": "古建筑",
    "address": "山西省临汾市尧都区牛王庙戏台",
    "latitude": "111.496382",
    "longitude": "36.237715"
  },
  {
    "name": "东羊后土庙",
    "cate": "古建筑",
    "address": "山西省临汾市尧都区东羊后土庙",
    "latitude": "111.505363",
    "longitude": "36.192103"
  },
  {
    "name": "王曲东岳庙",
    "cate": "古建筑",
    "address": "山西省临汾市尧都区王曲东岳庙",
    "latitude": "111.540472",
    "longitude": "36.171897"
  },
  {
    "name": "尧陵",
    "cate": "古建筑",
    "address": "山西省临汾市尧都区尧陵",
    "latitude": "111.795914",
    "longitude": "36.068741"
  },
  {
    "name": "铁佛寺",
    "cate": "古建筑",
    "address": "山西省临汾市尧都区铁佛寺",
    "latitude": "111.578797",
    "longitude": "36.082463"
  },
  {
    "name": "大河口遗址",
    "cate": "古遗址",
    "address": "山西省临汾市翼城具大河口遗址",
    "latitude": "111.784568",
    "longitude": "35.744365"
  },
  {
    "name": "南梁古城遗址",
    "cate": "古遗址",
    "address": "山西省临汾市翼城县南梁古城遗址",
    "latitude": "111.715223",
    "longitude": "35.724685"
  },
  {
    "name": "苇沟-北寿城遗址",
    "cate": "古遗址",
    "address": "山西省临汾市翼城县苇沟-北寿城遗址",
    "latitude": "111.698543",
    "longitude": "35.752035"
  },
  {
    "name": "石四牌坊和木四牌坊",
    "cate": "古建筑",
    "address": "山西省临汾市翼城县石四牌坊和木四牌坊",
    "latitude": "111.719048",
    "longitude": "35.739706"
  },
  {
    "name": "樊店关帝庙",
    "cate": "古建筑",
    "address": "山西省临汾市翼城县樊店关帝庙",
    "latitude": "111.609156",
    "longitude": "35.687896"
  },
  {
    "name": "四圣宫",
    "cate": "古建筑",
    "address": "山西省临汾市翼城县四圣宫",
    "latitude": "111.933359",
    "longitude": "35.576009"
  },
  {
    "name": "南撖东岳庙",
    "cate": "古建筑",
    "address": "山西省临汾市翼城县南撖东岳庙",
    "latitude": "111.824693",
    "longitude": "35.740049"
  },
  {
    "name": "乔泽庙戏台",
    "cate": "古建筑",
    "address": "山西省临汾市翼城县乔泽庙戏台",
    "latitude": "111.719048",
    "longitude": "35.739706"
  },
  {
    "name": "永和文庙大成殿",
    "cate": "古建筑",
    "address": "山西省临汾市永和县永和文庙大成殿",
    "latitude": "110.633950",
    "longitude": "36.758042"
  },
  {
    "name": "南村城址",
    "cate": "古遗址",
    "address": "山西省吕梁市方山县南村城址",
    "latitude": "111.218611",
    "longitude": "37.725811"
  },
  {
    "name": "大武鼓楼",
    "cate": "古建筑",
    "address": "山西省吕梁市方山县大武鼓楼",
    "latitude": "111.160437",
    "longitude": "37.648770"
  },
  {
    "name": "于成龙故居",
    "cate": "古建筑",
    "address": "山西省吕梁市方山县于成龙故居",
    "latitude": "111.286261",
    "longitude": "37.741648"
  },
  {
    "name": "东龙观墓群",
    "cate": "古墓葬",
    "address": "山西省吕梁市汾阳市东龙观墓群",
    "latitude": "111.756838",
    "longitude": "37.216025"
  },
  {
    "name": "太符观",
    "cate": "古建筑",
    "address": "山西省吕梁市汾阳市太符观",
    "latitude": "111.923908",
    "longitude": "37.344388"
  },
  {
    "name": "汾阳五岳庙",
    "cate": "古建筑",
    "address": "山西省吕梁市汾阳市汾阳五岳庙",
    "latitude": "111.829800",
    "longitude": "37.190323"
  },
  {
    "name": "文峰塔",
    "cate": "古建筑",
    "address": "山西省吕梁市汾阳市文峰塔",
    "latitude": "111.815504",
    "longitude": "37.245152"
  },
  {
    "name": "杏花村汾酒作坊",
    "cate": "古建筑",
    "address": "山西省吕梁市汾阳市杏花村汾酒作坊",
    "latitude": "111.908715",
    "longitude": "37.334704"
  },
  {
    "name": "柏草坡龙天土地庙",
    "cate": "古建筑",
    "address": "山西省吕梁市汾阳市柏草坡龙天土地庙",
    "latitude": "111.767829",
    "longitude": "37.343903"
  },
  {
    "name": "峪口圣母庙",
    "cate": "古建筑",
    "address": "山西省吕梁市汾阳市峪口圣母庙",
    "latitude": "111.805968",
    "longitude": "37.319557"
  },
  {
    "name": "汾阳关帝庙",
    "cate": "古建筑",
    "address": "山西省吕梁市汾阳市汾阳关帝庙",
    "latitude": "111.784489",
    "longitude": "37.264663"
  },
  {
    "name": "汾阳后土圣母庙",
    "cate": "古建筑",
    "address": "山西省吕梁市汾阳市汾阳后土圣母庙",
    "latitude": "111.770834",
    "longitude": "37.261493"
  },
  {
    "name": "交城玄中寺",
    "cate": "古建筑",
    "address": "山西省吕梁市交城县交城玄中寺",
    "latitude": "112.085133",
    "longitude": "37.564697"
  },
  {
    "name": "卦山天宁寺",
    "cate": "古建筑",
    "address": "山西省吕梁市交城县卦山天宁寺",
    "latitude": "112.136297",
    "longitude": "37.569380"
  },
  {
    "name": "竖石佛摩崖造像",
    "cate": "石窟寺\n及石刻",
    "address": "山西省吕梁市交城县竖石佛摩崖造像",
    "latitude": "112.148298",
    "longitude": "37.636809"
  },
  {
    "name": "山神峪千佛洞石窟",
    "cate": "石窟寺\n及石刻",
    "address": "山西省吕梁市交口县山神峪千佛洞石窟",
    "latitude": "111.085778",
    "longitude": "36.864928"
  },
  {
    "name": "马茂庄汉墓群",
    "cate": "古墓葬",
    "address": "山西省吕梁市离石区马茂庄汉墓群",
    "latitude": "111.130500",
    "longitude": "37.505058"
  },
  {
    "name": "安国寺",
    "cate": "古建筑",
    "address": "山西省吕梁市离石区安国寺",
    "latitude": "111.057377",
    "longitude": "37.526127"
  },
  {
    "name": "天贞观",
    "cate": "古建筑",
    "address": "山西省吕梁市离石区天贞观",
    "latitude": "111.146198",
    "longitude": "37.526315"
  },
  {
    "name": "义居寺",
    "cate": "古建筑",
    "address": "山西省吕梁市临县义居寺",
    "latitude": "110.940748",
    "longitude": "37.752014"
  },
  {
    "name": "碛口古建筑群",
    "cate": "古建筑",
    "address": "山西省吕梁市临县碛口古建筑群",
    "latitude": "110.742743",
    "longitude": "37.691056"
  },
  {
    "name": "善庆寺",
    "cate": "古建筑",
    "address": "山西省吕梁市临县善庆寺",
    "latitude": "110.994849",
    "longitude": "37.847939"
  },
  {
    "name": "临县陕甘宁晋绥联防军\n指挥部旧址",
    "cate": "近现代",
    "address": "山西省吕梁市临县临县陕甘宁晋绥联防军\n指挥部旧址",
    "latitude": "110.992712",
    "longitude": "37.951008"
  },
  {
    "name": "临县中央后委机关旧址",
    "cate": "近现代",
    "address": "山西省吕梁市临县临县中央后委机关旧址",
    "latitude": "110.992712",
    "longitude": "37.951008"
  },
  {
    "name": "香严寺",
    "cate": "古建筑",
    "address": "山西省吕梁市柳林县香严寺",
    "latitude": "110.903358",
    "longitude": "37.439307"
  },
  {
    "name": "玉虚宫下院",
    "cate": "古建筑",
    "address": "山西省吕梁市柳林县玉虚宫下院",
    "latitude": "110.888993",
    "longitude": "37.429816"
  },
  {
    "name": "后土圣母庙",
    "cate": "古建筑",
    "address": "山西省吕梁市石楼县后土圣母庙",
    "latitude": "110.834712",
    "longitude": "36.998461"
  },
  {
    "name": "兴东垣东岳庙",
    "cate": "古建筑",
    "address": "山西省吕梁市石楼县兴东垣东岳庙",
    "latitude": "110.956041",
    "longitude": "37.047119"
  },
  {
    "name": "则天庙",
    "cate": "古建筑",
    "address": "山西省吕梁市文水县则天庙",
    "latitude": "112.028866",
    "longitude": "37.438101"
  },
  {
    "name": "上贤梵安寺塔",
    "cate": "古建筑",
    "address": "山西省吕梁市文水县上贤梵安寺塔",
    "latitude": "111.984240",
    "longitude": "37.363112"
  },
  {
    "name": "孝义三皇庙",
    "cate": "古建筑",
    "address": "山西省吕梁市孝义市孝义三皇庙",
    "latitude": "111.750322",
    "longitude": "37.140053"
  },
  {
    "name": "孝义慈胜寺",
    "cate": "古建筑",
    "address": "山西省吕梁市孝义市孝义慈胜寺",
    "latitude": "111.749220",
    "longitude": "37.163646"
  },
  {
    "name": "孝义天齐庙",
    "cate": "古建筑",
    "address": "山西省吕梁市孝义市孝义天齐庙",
    "latitude": "111.828977",
    "longitude": "37.073126"
  },
  {
    "name": "中阳楼",
    "cate": "古建筑",
    "address": "山西省吕梁市孝义市中阳楼",
    "latitude": "111.811565",
    "longitude": "37.130121"
  },
  {
    "name": "碧村遗址",
    "cate": "古遗址",
    "address": "山西省吕梁市兴县碧村遗址",
    "latitude": "110.896829",
    "longitude": "38.507579"
  },
  {
    "name": "胡家沟砖塔",
    "cate": "古建筑",
    "address": "山西省吕梁市兴县胡家沟砖塔",
    "latitude": "111.059401",
    "longitude": "38.465180"
  },
  {
    "name": "晋绥边区政府及军区司\n令部旧址旧址",
    "cate": "近现代",
    "address": "山西省吕梁市兴县晋绥边区政府及军区司\n令部旧址旧址",
    "latitude": "111.037304",
    "longitude": "38.475472"
  },
  {
    "name": "晋绥日报社旧址",
    "cate": "近现代",
    "address": "山西省吕梁市兴县晋绥日报社旧址",
    "latitude": "111.127486",
    "longitude": "38.461818"
  },
  {
    "name": "北坡中共中央晋绥分局\n旧址",
    "cate": "近现代",
    "address": "山西省吕梁市兴县北坡中共中央晋绥分局\n旧址",
    "latitude": "111.029293",
    "longitude": "38.478360"
  },
  {
    "name": "广武汉墓群",
    "cate": "古墓葬",
    "address": "山西省朔州市山阴县广武汉墓群",
    "latitude": "112.777245",
    "longitude": "39.227670"
  },
  {
    "name": "广武城",
    "cate": "古建筑",
    "address": "山西省朔州市山阴县广武城",
    "latitude": "112.816421",
    "longitude": "39.527445"
  },
  {
    "name": "峙峪遗址",
    "cate": "古遗址",
    "address": "山西省朔州市朔城区峙峪遗址",
    "latitude": "112.432071",
    "longitude": "39.320196"
  },
  {
    "name": "崇福寺",
    "cate": "古建筑",
    "address": "山西省朔州市朔城区崇福寺",
    "latitude": "112.432508",
    "longitude": "39.315154"
  },
  {
    "name": "应县木塔",
    "cate": "古建筑",
    "address": "山西省朔州市应县应县木塔",
    "latitude": "113.188831",
    "longitude": "39.566465"
  },
  {
    "name": "净土寺",
    "cate": "古建筑",
    "address": "山西省朔州市应净土寺",
    "latitude": "113.194682",
    "longitude": "39.567414"
  },
  {
    "name": "右玉宝宁寺",
    "cate": "古建筑",
    "address": "山西省朔州市右玉县右玉宝宁寺",
    "latitude": "112.353458",
    "longitude": "40.165637"
  },
  {
    "name": "长城新广武村段、荷叶\n坪-王家岔段、竹帛口段\n、\n阳方口段",
    "cate": "古建筑",
    "address": "山西省朔州市、\n忻州市山阴县、\n岢岚县、\n繁峙县、\n空武具长城新广武村段、荷叶\n坪-王家岔段、竹帛口段\n、\n阳方口段",
    "latitude": 0,
    "longitude": 0
  },
  {
    "name": "古交千佛寺",
    "cate": "古建筑",
    "address": "山西省太原市古交市古交千佛寺",
    "latitude": "112.084953",
    "longitude": "37.950331"
  },
  {
    "name": "宝宁寺窦大夫祠",
    "cate": "古建筑",
    "address": "山西省太原市尖草坪区宝宁寺窦大夫祠",
    "latitude": "112.439811",
    "longitude": "38.011186"
  },
  {
    "name": "净因寺",
    "cate": "古建筑",
    "address": "山西省太原市尖草坪区净因寺",
    "latitude": "112.440673",
    "longitude": "37.997420"
  },
  {
    "name": "多福寺",
    "cate": "古建筑",
    "address": "山西省太原市尖草坪区多福寺",
    "latitude": "112.435322",
    "longitude": "37.967043"
  },
  {
    "name": "童子寺遗址",
    "cate": "古遗址",
    "address": "山西省太原市晋源区童子寺遗址",
    "latitude": "112.477869",
    "longitude": "37.715519"
  },
  {
    "name": "蒙山开化寺遗址",
    "cate": "古遗址",
    "address": "山西省太原市晋源区蒙山开化寺遗址",
    "latitude": "112.446195",
    "longitude": "37.777874"
  },
  {
    "name": "晋源阿育王塔",
    "cate": "古建筑",
    "address": "山西省太原市晋源区晋源阿育王塔",
    "latitude": "112.495419",
    "longitude": "37.738620"
  },
  {
    "name": "太山龙泉寺",
    "cate": "古建筑",
    "address": "山西省太原市晋源区太山龙泉寺",
    "latitude": "112.444102",
    "longitude": "37.751757"
  },
  {
    "name": "晋源文庙",
    "cate": "古建筑",
    "address": "山西省太原市晋源区晋源文庙",
    "latitude": "112.488912",
    "longitude": "37.727941"
  },
  {
    "name": "晋祠",
    "cate": "古建筑",
    "address": "山西省太原市晋源区晋祠",
    "latitude": "112.444271",
    "longitude": "37.697670"
  },
  {
    "name": "明秀寺",
    "cate": "古建筑",
    "address": "山西省太原市晋源区明秀寺",
    "latitude": "112.441002",
    "longitude": "37.681816"
  },
  {
    "name": "龙山石窟",
    "cate": "石窟寺\n及石刻",
    "address": "山西省太原市晋源区龙山石窟",
    "latitude": "112.443576",
    "longitude": "37.732299"
  },
  {
    "name": "天龙山石窟",
    "cate": "石窟寺\n及石刻",
    "address": "山西省太原市晋源区天龙山石窟",
    "latitude": "112.385814",
    "longitude": "37.737595"
  },
  {
    "name": "高君宇故居",
    "cate": "近现代",
    "address": "山西省太原市娄烦县高君宇故居",
    "latitude": "111.870052",
    "longitude": "38.166243"
  },
  {
    "name": "清徐尧庙",
    "cate": "古建筑",
    "address": "山西省太原市清徐县清徐尧庙",
    "latitude": "112.446503",
    "longitude": "37.502098"
  },
  {
    "name": "狐突庙",
    "cate": "古建筑",
    "address": "山西省太原市清徐县狐突庙",
    "latitude": "112.311054",
    "longitude": "37.623993"
  },
  {
    "name": "清源文庙",
    "cate": "古建筑",
    "address": "山西省太原市清徐县清源文庙",
    "latitude": "112.348453",
    "longitude": "37.612038"
  },
  {
    "name": "唱经楼",
    "cate": "古建筑",
    "address": "山西省太原市杏花岭区唱经楼",
    "latitude": "112.565223",
    "longitude": "37.871200"
  },
  {
    "name": "太原天主堂",
    "cate": "近现代",
    "address": "山西省太原市杏花岭区太原天主堂",
    "latitude": "112.570412",
    "longitude": "37.894241"
  },
  {
    "name": "山西督军府旧址",
    "cate": "近现代",
    "address": "山西省太原市杏花岭区山西督军府旧址",
    "latitude": "112.562713",
    "longitude": "37.874751"
  },
  {
    "name": "帖木儿塔",
    "cate": "古建筑",
    "address": "山西省太原市阳曲县帖木儿塔",
    "latitude": "112.672920",
    "longitude": "38.058511"
  },
  {
    "name": "前斧柯悬泉寺",
    "cate": "古建筑",
    "address": "山西省太原市阳曲县前斧柯悬泉寺",
    "latitude": "112.384070",
    "longitude": "37.986745"
  },
  {
    "name": "阳曲大王庙大殿",
    "cate": "古建筑",
    "address": "山西省太原市阳曲县阳曲大王庙大殿",
    "latitude": "112.805010",
    "longitude": "38.048719"
  },
  {
    "name": "辛庄开化寺",
    "cate": "古建筑",
    "address": "山西省太原市阳曲县辛庄开化寺",
    "latitude": "112.698896",
    "longitude": "38.189681"
  },
  {
    "name": "不二寺",
    "cate": "古建筑",
    "address": "山西省太原市阳曲县不二寺",
    "latitude": "112.666742",
    "longitude": "38.052012"
  },
  {
    "name": "阳曲轩辕庙",
    "cate": "古建筑",
    "address": "山西省太原市阳曲县阳曲轩辕庙",
    "latitude": "112.769926",
    "longitude": "38.068823"
  },
  {
    "name": "太原大关帝庙",
    "cate": "古建筑",
    "address": "山西省太原市迎泽区太原大关帝庙",
    "latitude": "112.557547",
    "longitude": "37.868088"
  },
  {
    "name": "太原清真寺",
    "cate": "古建筑",
    "address": "山西省太原市迎泽区太原清真寺",
    "latitude": "112.563373",
    "longitude": "37.863308"
  },
  {
    "name": "太原纯阳宫",
    "cate": "古建筑",
    "address": "山西省太原市迎泽区太原纯阳宫",
    "latitude": "112.572058",
    "longitude": "37.865675"
  },
  {
    "name": "崇善寺大悲殿",
    "cate": "古建筑",
    "address": "山西省太原市迎泽区崇善寺大悲殿",
    "latitude": "112.580020",
    "longitude": "37.866778"
  },
  {
    "name": "太原文庙",
    "cate": "古建筑",
    "address": "山西省太原市迎泽区太原文庙",
    "latitude": "112.579670",
    "longitude": "37.865500"
  },
  {
    "name": "永祚寺",
    "cate": "古建筑",
    "address": "山西省太原市迎泽区永祚寺",
    "latitude": "112.563373",
    "longitude": "37.863308"
  },
  {
    "name": "山西大学堂旧址",
    "cate": "近现代",
    "address": "山西省太原市迎泽区山西大学堂旧址",
    "latitude": "112.563373",
    "longitude": "37.863308"
  },
  {
    "name": "中共太原支部旧址",
    "cate": "近现代",
    "address": "山西省太原市迎泽区中共太原支部旧址",
    "latitude": "112.563373",
    "longitude": "37.863308"
  },
  {
    "name": "古交遗址",
    "cate": "古遗址",
    "address": "山西省太原市古交市古交遗址",
    "latitude": "112.084953",
    "longitude": "37.950331"
  },
  {
    "name": "晋阳古城遗址",
    "cate": "古遗址",
    "address": "山西省太原市晋源区晋阳古城遗址",
    "latitude": "112.476513",
    "longitude": "37.740220"
  },
  {
    "name": "娄烦古城遗址",
    "cate": "古遗址",
    "address": "山西省太原市娄烦县娄烦古城遗址",
    "latitude": "111.799019",
    "longitude": "38.069066"
  },
  {
    "name": "王家峰墓群",
    "cate": "古墓葬",
    "address": "山西省太原市迎泽区王家峰墓群",
    "latitude": "112.608641",
    "longitude": "37.841807"
  },
  {
    "name": "阿育王塔",
    "cate": "古建筑",
    "address": "山西省忻州市代县阿育王塔",
    "latitude": "112.959056",
    "longitude": "39.068813"
  },
  {
    "name": "边靖楼",
    "cate": "古建筑",
    "address": "山西省忻州市代县边靖楼",
    "latitude": "112.954539",
    "longitude": "39.064244"
  },
  {
    "name": "长城雁门关段",
    "cate": "古建筑",
    "address": "山西省忻州市代县长城雁门关段",
    "latitude": "112.870065",
    "longitude": "39.187948"
  },
  {
    "name": "代县文庙",
    "cate": "古建筑",
    "address": "山西省忻州市代县代县文庙",
    "latitude": "112.960102",
    "longitude": "39.066831"
  },
  {
    "name": "洪福寺",
    "cate": "古建筑",
    "address": "山西省忻州市定襄县洪福寺",
    "latitude": "112.996660",
    "longitude": "38.447346"
  },
  {
    "name": "定襄关王庙",
    "cate": "古建筑",
    "address": "山西省忻州市定襄县定襄关王庙",
    "latitude": "112.962888",
    "longitude": "38.491316"
  },
  {
    "name": "留晖洪福寺",
    "cate": "古建筑",
    "address": "山西省忻州市定襄县留晖洪福寺",
    "latitude": "112.996660",
    "longitude": "38.447346"
  },
  {
    "name": "阎家大院",
    "cate": "近现代",
    "address": "山西省忻州市定襄县阎家大院",
    "latitude": "112.957234",
    "longitude": "38.471725"
  },
  {
    "name": "西河头地道战遗址",
    "cate": "近现代",
    "address": "山西省忻州市定襄县西河头地道战遗址",
    "latitude": "112.928484",
    "longitude": "38.484219"
  },
  {
    "name": "繁峙正觉寺大雄宝殿",
    "cate": "古建筑",
    "address": "山西省忻州市繁峙县繁峙正觉寺大雄宝殿",
    "latitude": "113.274899",
    "longitude": "39.189637"
  },
  {
    "name": "岩山寺",
    "cate": "古建筑",
    "address": "山西省忻州市繁峙县岩山寺",
    "latitude": "113.659999",
    "longitude": "39.230212"
  },
  {
    "name": "三圣寺",
    "cate": "古建筑",
    "address": "山西省忻州市繁峙县三圣寺",
    "latitude": "113.591663",
    "longitude": "39.306182"
  },
  {
    "name": "公主寺",
    "cate": "古建筑",
    "address": "山西省忻州市繁峙县公主寺",
    "latitude": "113.380976",
    "longitude": "39.149096"
  },
  {
    "name": "秘密寺",
    "cate": "古建筑",
    "address": "山西省忻州市繁峙县秘密寺",
    "latitude": "113.348330",
    "longitude": "39.078731"
  },
  {
    "name": "繁峙琉璃塔",
    "cate": "古建筑",
    "address": "山西省忻州市繁峙县繁峙琉璃塔",
    "latitude": "113.265464",
    "longitude": "39.188835"
  },
  {
    "name": "静乐文庙",
    "cate": "古建筑",
    "address": "山西省忻州市静乐县静乐文庙",
    "latitude": "111.939498",
    "longitude": "38.359306"
  },
  {
    "name": "静居寺石窟",
    "cate": "石窟寺\n及石刻",
    "address": "山西省忻州市静乐县静居寺石窟",
    "latitude": "111.873359",
    "longitude": "38.235807"
  },
  {
    "name": "汾阳宫遗址",
    "cate": "古遗址",
    "address": "山西省忻州市宁武县汾阳宫遗址",
    "latitude": "112.304734",
    "longitude": "39.001498"
  },
  {
    "name": "五台山建筑群(显通寺\n、碧山寺、塔院寺、菩\n蓝顶)",
    "cate": "古建筑",
    "address": "山西省忻州市五台山五台山建筑群(显通寺\n、碧山寺、塔院寺、菩\n蓝顶)",
    "latitude": "113.631938",
    "longitude": "38.948728"
  },
  {
    "name": "罗眠寺",
    "cate": "古建筑",
    "address": "山西省忻州市五台县罗眠寺",
    "latitude": "113.255419",
    "longitude": "38.728056"
  },
  {
    "name": "广济寺大雄宝殿",
    "cate": "古建筑",
    "address": "山西省忻州市五台县广济寺大雄宝殿",
    "latitude": "113.260055",
    "longitude": "38.723083"
  },
  {
    "name": "南禅寺大殿",
    "cate": "古建筑",
    "address": "山西省忻州市五台县南禅寺大殿",
    "latitude": "113.255419",
    "longitude": "38.728056"
  },
  {
    "name": "佛光寺",
    "cate": "古建筑",
    "address": "山西省忻州市五台县佛光寺",
    "latitude": "113.394133",
    "longitude": "38.870103"
  },
  {
    "name": "延庆寺",
    "cate": "古建筑",
    "address": "山西省忻州市五台县延庆寺",
    "latitude": "113.072083",
    "longitude": "38.750820"
  },
  {
    "name": "五台山南山寺",
    "cate": "古建筑",
    "address": "山西省忻州市五台县五台山南山寺",
    "latitude": "113.631938",
    "longitude": "38.948728"
  },
  {
    "name": "五台山尊胜寺",
    "cate": "古建筑",
    "address": "山西省忻州市五台县五台山尊胜寺",
    "latitude": "113.631938",
    "longitude": "38.948728"
  },
  {
    "name": "南茹八路军总部旧址",
    "cate": "近现代",
    "address": "山西省忻州市五台县南茹八路军总部旧址",
    "latitude": "113.365847",
    "longitude": "38.735309"
  },
  {
    "name": "白求恩模范病室旧址",
    "cate": "近现代",
    "address": "山西省忻州市五台县白求恩模范病室旧址",
    "latitude": "113.582436",
    "longitude": "38.745221"
  },
  {
    "name": "徐向前故居",
    "cate": "近现代",
    "address": "山西省忻州市五台县徐向前故居",
    "latitude": "113.169454",
    "longitude": "38.630108"
  },
  {
    "name": "金岗库村晋察冀军区司\n令部旧址",
    "cate": "近现代",
    "address": "山西省忻州市五台县金岗库村晋察冀军区司\n令部旧址",
    "latitude": "113.667220",
    "longitude": "38.887892"
  },
  {
    "name": "金洞寺",
    "cate": "古建筑",
    "address": "山西省忻州市忻府区金洞寺",
    "latitude": "112.554549",
    "longitude": "38.488948"
  },
  {
    "name": "忻口战役遗址",
    "cate": "近现代",
    "address": "山西省忻州市忻府区忻口战役遗址",
    "latitude": "112.742509",
    "longitude": "38.612772"
  },
  {
    "name": "原平惠济寺",
    "cate": "古建筑",
    "address": "山西省忻州市原平市原平惠济寺",
    "latitude": "112.811693",
    "longitude": "38.786101"
  },
  {
    "name": "原平普济桥",
    "cate": "古建筑",
    "address": "山西省忻州市原平市原平普济桥",
    "latitude": "112.754717",
    "longitude": "38.879472"
  },
  {
    "name": "崞阳文庙",
    "cate": "古建筑",
    "address": "山西省忻州市原平市崞阳文庙",
    "latitude": "112.766169",
    "longitude": "38.886443"
  },
  {
    "name": "阳武朱氏牌楼",
    "cate": "古建筑",
    "address": "山西省忻州市原平市阳武朱氏牌楼",
    "latitude": "112.614519",
    "longitude": "38.813426"
  },
  {
    "name": "关王庙",
    "cate": "古建筑",
    "address": "山西省阳泉市郊区关王庙",
    "latitude": "113.616561",
    "longitude": "37.926592"
  },
  {
    "name": "冠山书院",
    "cate": "古建筑",
    "address": "山西省阳泉市平定县冠山书院",
    "latitude": "113.577418",
    "longitude": "37.789667"
  },
  {
    "name": "冠山天宁寺双塔",
    "cate": "古建筑",
    "address": "山西省阳泉市平定县冠山天宁寺双塔",
    "latitude": "113.624408",
    "longitude": "37.801302"
  },
  {
    "name": "平定马齿岩寺",
    "cate": "古建筑",
    "address": "山西省阳泉市平定县平定马齿岩寺",
    "latitude": "113.629777",
    "longitude": "37.804986"
  },
  {
    "name": "开河寺石窟",
    "cate": "石窟寺\n及石刻",
    "address": "山西省阳泉市平定县开河寺石窟",
    "latitude": "113.629777",
    "longitude": "37.804986"
  },
  {
    "name": "藏山祠",
    "cate": "古建筑",
    "address": "山西省阳泉市孟县藏山祠",
    "latitude": "113.351888",
    "longitude": "38.223328"
  },
  {
    "name": "大王庙",
    "cate": "古建筑",
    "address": "山西省阳泉市盂县大王庙",
    "latitude": "113.411290",
    "longitude": "38.088786"
  },
  {
    "name": "府君庙",
    "cate": "古建筑",
    "address": "山西省阳泉市盂县府君庙",
    "latitude": "113.350004",
    "longitude": "38.325955"
  },
  {
    "name": "坡头泰山庙",
    "cate": "古建筑",
    "address": "山西省阳泉市盂县坡头泰山庙",
    "latitude": "113.582491",
    "longitude": "38.162920"
  },
  {
    "name": "盂北泰山庙",
    "cate": "古建筑",
    "address": "山西省阳泉市孟县盂北泰山庙",
    "latitude": "113.580426",
    "longitude": "37.857094"
  },
  {
    "name": "西关三圣寺大殿",
    "cate": "古建筑",
    "address": "山西省阳泉市盂县西关三圣寺大殿",
    "latitude": "113.411911",
    "longitude": "38.086249"
  },
  {
    "name": "山王墓地",
    "cate": "古墓葬",
    "address": "山西省运城市河津市山王墓地",
    "latitude": "110.776517",
    "longitude": "35.530947"
  },
  {
    "name": "河津台头庙",
    "cate": "古建筑",
    "address": "山西省运城市河津市河津台头庙",
    "latitude": "110.712912",
    "longitude": "35.582961"
  },
  {
    "name": "玄帝庙",
    "cate": "古建筑",
    "address": "山西省运城市河津市玄帝庙",
    "latitude": "110.715110",
    "longitude": "35.673008"
  },
  {
    "name": "古垛后土庙",
    "cate": "古建筑",
    "address": "山西省运城市河津市古垛后土庙",
    "latitude": "110.724727",
    "longitude": "35.706275"
  },
  {
    "name": "阮氏双碑楼",
    "cate": "古建筑",
    "address": "山西省运城市河津市阮氏双碑楼",
    "latitude": "110.712032",
    "longitude": "35.596357"
  },
  {
    "name": "玉壁城遗址",
    "cate": "古遗址",
    "address": "山西省运城市稷山县玉壁城遗址",
    "latitude": "110.947471",
    "longitude": "35.562594"
  },
  {
    "name": "马村砖雕墓",
    "cate": "古墓葬",
    "address": "山西省运城市稷山县马村砖雕墓",
    "latitude": "110.926109",
    "longitude": "35.586963"
  },
  {
    "name": "南阳法王庙",
    "cate": "古建筑",
    "address": "山西省运城市稷山县南阳法王庙",
    "latitude": "110.938733",
    "longitude": "35.594219"
  },
  {
    "name": "稷山稷王庙",
    "cate": "古建筑",
    "address": "山西省运城市稷山县稷山稷王庙",
    "latitude": "110.978234",
    "longitude": "35.601064"
  },
  {
    "name": "北阳城砖塔",
    "cate": "古建筑",
    "address": "山西省运城市稷山县北阳城砖塔",
    "latitude": "111.061865",
    "longitude": "35.524297"
  },
  {
    "name": "青龙寺",
    "cate": "古建筑",
    "address": "山西省运城市稷山县青龙寺",
    "latitude": "110.927405",
    "longitude": "35.588666"
  },
  {
    "name": "稷山大佛",
    "cate": "其他",
    "address": "山西省运城市稷山县稷山大佛",
    "latitude": "110.983273",
    "longitude": "35.604515"
  },
  {
    "name": "周家庄遗址",
    "cate": "古遗址",
    "address": "山西省运城市绛县周家庄遗址",
    "latitude": "111.477374",
    "longitude": "35.482972"
  },
  {
    "name": "横北硼国墓地",
    "cate": "古墓葬",
    "address": "山西省运城市绛县横北硼国墓地",
    "latitude": "111.450439",
    "longitude": "35.475388"
  },
  {
    "name": "长春观",
    "cate": "古建筑",
    "address": "山西省运城市绛县长春观",
    "latitude": "111.568849",
    "longitude": "35.491764"
  },
  {
    "name": "绛县文庙",
    "cate": "古建筑",
    "address": "山西省运城市绛县绛县文庙",
    "latitude": "111.570558",
    "longitude": "35.486823"
  },
  {
    "name": "南樊石牌坊及碑亭",
    "cate": "古建筑",
    "address": "山西省运城市绛县南樊石牌坊及碑亭",
    "latitude": "111.610644",
    "longitude": "35.609359"
  },
  {
    "name": "乔寺碑楼",
    "cate": "古建筑",
    "address": "山西省运城市绛县乔寺碑楼",
    "latitude": "111.441278",
    "longitude": "35.458152"
  },
  {
    "name": "南柳泰山庙",
    "cate": "古建筑",
    "address": "山西省运城市绛县南柳泰山庙",
    "latitude": "111.611580",
    "longitude": "35.558220"
  },
  {
    "name": "太阴寺",
    "cate": "古建筑",
    "address": "山西省运城市绛县太阴寺",
    "latitude": "111.654476",
    "longitude": "35.493047"
  },
  {
    "name": "董封戏台",
    "cate": "古建筑",
    "address": "山西省运城市绛县董封戏台",
    "latitude": "111.643732",
    "longitude": "35.580424"
  },
  {
    "name": "景云宫玉皇殿",
    "cate": "古建筑",
    "address": "山西省运城市绛县景云宫玉皇殿",
    "latitude": "111.568849",
    "longitude": "35.491764"
  },
  {
    "name": "程村遗址",
    "cate": "古遗址",
    "address": "山西省运城市临猗县程村遗址",
    "latitude": "110.619821",
    "longitude": "35.026652"
  },
  {
    "name": "猗氏故城",
    "cate": "古遗址",
    "address": "山西省运城市临猗县猗氏故城",
    "latitude": "110.778982",
    "longitude": "35.139185"
  },
  {
    "name": "闾原头永兴寺塔",
    "cate": "古建筑",
    "address": "山西省运城市临猗县闾原头永兴寺塔",
    "latitude": "110.767168",
    "longitude": "35.115148"
  },
  {
    "name": "张村圣庵寺塔",
    "cate": "古建筑",
    "address": "山西省运城市临猗县张村圣庵寺塔",
    "latitude": "110.769374",
    "longitude": "35.216489"
  },
  {
    "name": "临晋县衙",
    "cate": "古建筑",
    "address": "山西省运城市临猗县临晋县衙",
    "latitude": "110.552769",
    "longitude": "35.096804"
  },
  {
    "name": "妙道寺双塔",
    "cate": "古建筑",
    "address": "山西省运城市临猗县妙道寺双塔",
    "latitude": "110.773956",
    "longitude": "35.147759"
  },
  {
    "name": "下阳城遗址",
    "cate": "古遗址",
    "address": "山西省运城市平陆县下阳城遗址",
    "latitude": "111.193957",
    "longitude": "34.829595"
  },
  {
    "name": "虞国古城遗址",
    "cate": "古遗址",
    "address": "山西省运城市平陆县虞国古城遗址",
    "latitude": "111.214355",
    "longitude": "34.826401"
  },
  {
    "name": "虞坂古盐道",
    "cate": "古遗址",
    "address": "山西省运城市平陆县虞坂古盐道",
    "latitude": "111.193957",
    "longitude": "34.829595"
  },
  {
    "name": "黄河栈道遗址",
    "cate": "古遗址",
    "address": "山西省运城市平陆县黄河栈道遗址",
    "latitude": "111.307165",
    "longitude": "34.815858"
  },
  {
    "name": "坡头遗址",
    "cate": "古遗址",
    "address": "山西省运城市芮城县坡头遗址",
    "latitude": "110.836168",
    "longitude": "34.783389"
  },
  {
    "name": "恰河遗址",
    "cate": "古遗址",
    "address": "山西省运城市芮城县恰河遗址",
    "latitude": "110.694418",
    "longitude": "34.694173"
  },
  {
    "name": "金胜庄遗址",
    "cate": "古遗址",
    "address": "山西省运城市芮城县金胜庄遗址",
    "latitude": "110.694418",
    "longitude": "34.694173"
  },
  {
    "name": "西侯度遗址",
    "cate": "古遗址",
    "address": "山西省运城市芮城县西侯度遗址",
    "latitude": "110.305484",
    "longitude": "34.695344"
  },
  {
    "name": "东庄遗址",
    "cate": "古遗址",
    "address": "山西省运城市芮城县东庄遗址",
    "latitude": "110.452056",
    "longitude": "34.699093"
  },
  {
    "name": "古魏城遗址",
    "cate": "古遗址",
    "address": "山西省运城市芮城县古魏城遗址",
    "latitude": "110.695558",
    "longitude": "34.697817"
  },
  {
    "name": "西王村遗址",
    "cate": "古遗址",
    "address": "山西省运城市芮城县西王村遗址",
    "latitude": "110.322130",
    "longitude": "34.619056"
  },
  {
    "name": "巷口寿圣寺砖塔",
    "cate": "古建筑",
    "address": "山西省运城市芮城县巷口寿圣寺砖塔",
    "latitude": "110.696101",
    "longitude": "34.701946"
  },
  {
    "name": "永乐宫",
    "cate": "古建筑",
    "address": "山西省运城市芮城县永乐宫",
    "latitude": "110.693119",
    "longitude": "34.720687"
  },
  {
    "name": "芮城城隍庙",
    "cate": "古建筑",
    "address": "山西省运城市芮城县芮城城隍庙",
    "latitude": "110.690355",
    "longitude": "34.692145"
  },
  {
    "name": "清凉寺",
    "cate": "古建筑",
    "address": "山西省运城市芮城县清凉寺",
    "latitude": "110.831878",
    "longitude": "34.781210"
  },
  {
    "name": "广仁王庙",
    "cate": "古建筑",
    "address": "山西省运城市芮城县广仁王庙",
    "latitude": "110.687379",
    "longitude": "34.729243"
  },
  {
    "name": "万荣稷王山塔",
    "cate": "古建筑",
    "address": "山西省运城市万荣县万荣稷王山塔",
    "latitude": "110.994857",
    "longitude": "35.381266"
  },
  {
    "name": "薛瑄家庙及墓地",
    "cate": "古建筑",
    "address": "山西省运城市万荣县薛瑄家庙及墓地",
    "latitude": "110.837957",
    "longitude": "35.415805"
  },
  {
    "name": "中里庄八龙寺塔",
    "cate": "古建筑",
    "address": "山西省运城市万荣县中里庄八龙寺塔",
    "latitude": "110.550563",
    "longitude": "35.320952"
  },
  {
    "name": "万荣旱泉塔",
    "cate": "古建筑",
    "address": "山西省运城市万荣县万荣旱泉塔",
    "latitude": "110.775818",
    "longitude": "35.336223"
  },
  {
    "name": "万荣东岳庙",
    "cate": "古建筑",
    "address": "山西省运城市万荣县万荣东岳庙",
    "latitude": "110.834777",
    "longitude": "35.416148"
  },
  {
    "name": "闫景李家大院",
    "cate": "古建筑",
    "address": "山西省运城市万荣县闫景李家大院",
    "latitude": "110.724316",
    "longitude": "35.291681"
  },
  {
    "name": "南阳村寿圣寺塔",
    "cate": "古建筑",
    "address": "山西省运城市万荣县南阳村寿圣寺塔",
    "latitude": "110.797575",
    "longitude": "35.496440"
  },
  {
    "name": "万荣稷王庙",
    "cate": "古建筑",
    "address": "山西省运城市万荣县万荣稷王庙",
    "latitude": "110.779854",
    "longitude": "35.449221"
  },
  {
    "name": "万荣后土庙",
    "cate": "古建筑",
    "address": "山西省运城市万荣县万荣后土庙",
    "latitude": "110.837957",
    "longitude": "35.415805"
  },
  {
    "name": "万泉文庙",
    "cate": "古建筑",
    "address": "山西省运城市万荣县万泉文庙",
    "latitude": "110.808871",
    "longitude": "35.360804"
  },
  {
    "name": "北辛舍利塔",
    "cate": "古建筑",
    "address": "山西省运城市万荣县北辛舍利塔",
    "latitude": "110.837957",
    "longitude": "35.415805"
  },
  {
    "name": "上郭城址和邱家庄墓群",
    "cate": "古遗址",
    "address": "山西省运城市闻喜县上郭城址和邱家庄墓群",
    "latitude": "111.261672",
    "longitude": "35.329715"
  },
  {
    "name": "郭家庄仇氏石牌坊及\n亭",
    "cate": "古建筑",
    "address": "山西省运城市闻喜县郭家庄仇氏石牌坊及\n亭",
    "latitude": "111.176440",
    "longitude": "35.302166"
  },
  {
    "name": "后稷庙",
    "cate": "古建筑",
    "address": "山西省运城市闻喜县后稷庙",
    "latitude": "111.224485",
    "longitude": "35.356664"
  },
  {
    "name": "禹王城遗址",
    "cate": "古遗址",
    "address": "山西省运城市夏县禹王城遗址",
    "latitude": "111.180228",
    "longitude": "35.183692"
  },
  {
    "name": "西阴村遗址",
    "cate": "古遗址",
    "address": "山西省运城市夏县西阴村遗址",
    "latitude": "111.226274",
    "longitude": "35.214961"
  },
  {
    "name": "东下冯遗址",
    "cate": "古遗址",
    "address": "山西省运城市夏县东下冯遗址",
    "latitude": "111.311157",
    "longitude": "35.254477"
  },
  {
    "name": "薛嵩墓",
    "cate": "古墓葬",
    "address": "山西省运城市夏县薛嵩墓",
    "latitude": "111.082174",
    "longitude": "35.261582"
  },
  {
    "name": "司马光墓",
    "cate": "古墓葬",
    "address": "山西省运城市夏县司马光墓",
    "latitude": "111.122870",
    "longitude": "35.198931"
  },
  {
    "name": "崔家河墓群",
    "cate": "古墓葬",
    "address": "山西省运城市夏县崔家河墓群",
    "latitude": "111.282286",
    "longitude": "35.247143"
  },
  {
    "name": "夏县文庙大成殿",
    "cate": "古建筑",
    "address": "山西省运城市夏县夏县文庙大成殿",
    "latitude": "111.225069",
    "longitude": "35.134483"
  },
  {
    "name": "上冯圣母庙",
    "cate": "古建筑",
    "address": "山西省运城市夏县上冯圣母庙",
    "latitude": "111.314143",
    "longitude": "35.244904"
  },
  {
    "name": "大洋泰山庙",
    "cate": "古建筑",
    "address": "山西省运城市夏县大洋泰山庙",
    "latitude": "111.274270",
    "longitude": "35.195205"
  },
  {
    "name": "墙下关帝庙",
    "cate": "古建筑",
    "address": "山西省运城市夏县墙下关帝庙",
    "latitude": "111.199132",
    "longitude": "35.252274"
  },
  {
    "name": "冯古庄墓地",
    "cate": "古墓葬",
    "address": "山西省运城市新绛县冯古庄墓地",
    "latitude": "111.173674",
    "longitude": "35.687007"
  },
  {
    "name": "绛州文庙",
    "cate": "古建筑",
    "address": "山西省运城市新绛县绛州文庙",
    "latitude": "111.230736",
    "longitude": "35.617329"
  },
  {
    "name": "北池稷王庙",
    "cate": "古建筑",
    "address": "山西省运城市新绛县北池稷王庙",
    "latitude": "111.055867",
    "longitude": "35.490141"
  },
  {
    "name": "白台寺",
    "cate": "古建筑",
    "address": "山西省运城市新绛县白台寺",
    "latitude": "111.075602",
    "longitude": "35.663801"
  },
  {
    "name": "泉掌关帝庙",
    "cate": "古建筑",
    "address": "山西省运城市新绛县泉掌关帝庙",
    "latitude": "111.117052",
    "longitude": "35.730658"
  },
  {
    "name": "绛州大堂(含三楼)",
    "cate": "古建筑",
    "address": "山西省运城市新绛县绛州大堂(含三楼)",
    "latitude": "111.221117",
    "longitude": "35.613651"
  },
  {
    "name": "绛州三楼",
    "cate": "古建筑",
    "address": "山西省运城市新绛县绛州三楼",
    "latitude": "111.224767",
    "longitude": "35.616007"
  },
  {
    "name": "福胜寺",
    "cate": "古建筑",
    "address": "山西省运城市新绛县福胜寺",
    "latitude": "111.174203",
    "longitude": "35.752592"
  },
  {
    "name": "乔沟头玉皇庙",
    "cate": "古建筑",
    "address": "山西省运城市新绛县乔沟头玉皇庙",
    "latitude": "111.173889",
    "longitude": "35.752949"
  },
  {
    "name": "稷益庙",
    "cate": "古建筑",
    "address": "山西省运城市新绛县稷益庙",
    "latitude": "111.121151",
    "longitude": "35.506427"
  },
  {
    "name": "龙香关帝庙",
    "cate": "古建筑",
    "address": "山西省运城市新绛县龙香关帝庙",
    "latitude": "111.293680",
    "longitude": "35.684115"
  },
  {
    "name": "新绛龙兴寺",
    "cate": "古建筑",
    "address": "山西省运城市新绛县新绛龙兴寺",
    "latitude": "111.225735",
    "longitude": "35.617847"
  },
  {
    "name": "三官庙",
    "cate": "古建筑",
    "address": "山西省运城市新绛县三官庙",
    "latitude": "111.226459",
    "longitude": "35.613258"
  },
  {
    "name": "新绛寿圣寺大殿",
    "cate": "古建筑",
    "address": "山西省运城市新绛县新绛寿圣寺大殿",
    "latitude": "111.188169",
    "longitude": "35.749339"
  },
  {
    "name": "运城太平兴国寺塔",
    "cate": "古建筑",
    "address": "山西省运城市盐湖区运城太平兴国寺塔",
    "latitude": "111.043096",
    "longitude": "35.063352"
  },
  {
    "name": "运城关王庙",
    "cate": "古建筑",
    "address": "山西省运城市盐湖区运城关王庙",
    "latitude": "110.996264",
    "longitude": "35.016947"
  },
  {
    "name": "池神庙及盐池禁墙",
    "cate": "古建筑",
    "address": "山西省运城市盐湖区池神庙及盐池禁墙",
    "latitude": "110.890016",
    "longitude": "34.938803"
  },
  {
    "name": "泛舟禅师塔",
    "cate": "古建筑",
    "address": "山西省运城市盐湖区泛舟禅师塔",
    "latitude": "110.940025",
    "longitude": "35.020482"
  },
  {
    "name": "解州关帝庙",
    "cate": "古建筑",
    "address": "山西省运城市盐湖区解州关帝庙",
    "latitude": "110.847463",
    "longitude": "34.906578"
  },
  {
    "name": "舜帝陵庙",
    "cate": "古建筑",
    "address": "山西省云城市盐湖区舜帝陵庙",
    "latitude": "110.911566",
    "longitude": "35.119356"
  },
  {
    "name": "寨里关帝庙献殿",
    "cate": "古建筑",
    "address": "山西省运城市盐湖区寨里关帝庙献殿",
    "latitude": "111.136119",
    "longitude": "35.030890"
  },
  {
    "name": "郭村泰山庙大殿",
    "cate": "古建筑",
    "address": "山西省运城市盐湖区郭村泰山庙大殿",
    "latitude": "111.067287",
    "longitude": "35.283153"
  },
  {
    "name": "常平关帝庙",
    "cate": "古建筑",
    "address": "山西省运城市盐湖区常平关帝庙",
    "latitude": "110.998135",
    "longitude": "35.015549"
  },
  {
    "name": "解州同善义仓",
    "cate": "古建筑",
    "address": "山西省运城市盐湖区解州同善义仓",
    "latitude": "110.862954",
    "longitude": "34.910019"
  },
  {
    "name": "蒲津渡与蒲州故城遗址",
    "cate": "古遗址",
    "address": "山西省运城市永济市蒲津渡与蒲州故城遗址",
    "latitude": "110.291076",
    "longitude": "34.846737"
  },
  {
    "name": "解梁故城遗址",
    "cate": "古遗址",
    "address": "山西省运城市永济市解梁故城遗址",
    "latitude": "110.447771",
    "longitude": "34.866499"
  },
  {
    "name": "栖岩寺塔林",
    "cate": "古建筑",
    "address": "山西省运城市永济市栖岩寺塔林",
    "latitude": "110.447771",
    "longitude": "34.866499"
  },
  {
    "name": "普救寺塔",
    "cate": "古建筑",
    "address": "山西省运城市永济市普救寺塔",
    "latitude": "110.333219",
    "longitude": "34.845179"
  },
  {
    "name": "永济万固寺",
    "cate": "古建筑",
    "address": "山西省运城市永济市永济万固寺",
    "latitude": "110.369193",
    "longitude": "34.814881"
  },
  {
    "name": "永济扁鹊庙",
    "cate": "古建筑",
    "address": "山西省运城市永济市永济扁鹊庙",
    "latitude": "110.447771",
    "longitude": "34.866499"
  },
  {
    "name": "董村戏台",
    "cate": "古建筑",
    "address": "山西省运城市永济市董村戏台",
    "latitude": "110.724567",
    "longitude": "34.897153"
  },
  {
    "name": "东姚温牌坊",
    "cate": "古建筑",
    "address": "山西省运城市永济市东姚温牌坊",
    "latitude": "110.380232",
    "longitude": "34.835896"
  },
  {
    "name": "宋村永兴寺",
    "cate": "古建筑",
    "address": "山西省运城市垣曲县宋村永兴寺",
    "latitude": "111.830168",
    "longitude": "35.173177"
  },
  {
    "name": "二郎庙北殿",
    "cate": "古建筑",
    "address": "山西省运城市垣曲县二郎庙北殿",
    "latitude": "111.670215",
    "longitude": "35.298297"
  },
  {
    "name": "埝堆玉皇庙",
    "cate": "古建筑",
    "address": "山西省运城市垣曲县埝堆玉皇庙",
    "latitude": "111.692038",
    "longitude": "35.287987"
  },
  {
    "name": "庄头天仙庙",
    "cate": "古建筑",
    "address": "山西省长治市壶关县庄头天仙庙",
    "latitude": "113.264813",
    "longitude": "36.127248"
  },
  {
    "name": "三峻庙",
    "cate": "古建筑",
    "address": "山西省长治市壶关县三峻庙",
    "latitude": "112.963901",
    "longitude": "35.976014"
  },
  {
    "name": "真泽二仙宫",
    "cate": "古建筑",
    "address": "山西省长治市壶关县真泽二仙宫",
    "latitude": "113.206836",
    "longitude": "36.115645"
  },
  {
    "name": "西周黎侯墓群",
    "cate": "古墓葬",
    "address": "山西省长治市黎城县西周黎侯墓群",
    "latitude": "113.387155",
    "longitude": "36.502328"
  },
  {
    "name": "辛村天齐王庙",
    "cate": "古建筑",
    "address": "山西省长治市黎城县辛村天齐王庙",
    "latitude": "113.502256",
    "longitude": "36.555348"
  },
  {
    "name": "长宁大庙",
    "cate": "古建筑",
    "address": "山西省长治市黎城县长宁大庙",
    "latitude": "113.510652",
    "longitude": "36.554476"
  },
  {
    "name": "黎城城隍庙",
    "cate": "古建筑",
    "address": "山西省长治市黎城县黎城城隍庙",
    "latitude": "113.387451",
    "longitude": "36.502317"
  },
  {
    "name": "西下庄昭泽王庙",
    "cate": "古建筑",
    "address": "山西省长治市黎城县西下庄昭泽王庙",
    "latitude": "113.247791",
    "longitude": "36.614710"
  },
  {
    "name": "黄崖洞兵工厂旧址",
    "cate": "近现代",
    "address": "山西省长治市黎城县黄崖洞兵工厂旧址",
    "latitude": "113.409228",
    "longitude": "36.786937"
  },
  {
    "name": "李庄武庙",
    "cate": "古建筑",
    "address": "山西省长治市潞城区李庄武庙",
    "latitude": "113.390677",
    "longitude": "36.316827"
  },
  {
    "name": "李庄文庙",
    "cate": "古建筑",
    "address": "山西省长治市潞城区李庄文庙",
    "latitude": "113.388905",
    "longitude": "36.318196"
  },
  {
    "name": "原起寺",
    "cate": "古建筑",
    "address": "山西省长治市潞城区原起寺",
    "latitude": "113.431920",
    "longitude": "36.353119"
  },
  {
    "name": "东邑龙王庙",
    "cate": "古建筑",
    "address": "山西省长治市潞城区东邑龙王庙",
    "latitude": "113.268544",
    "longitude": "36.294915"
  },
  {
    "name": "潦河头关帝庙",
    "cate": "古建筑",
    "address": "山西省长治市潞城区潦河头关帝庙",
    "latitude": "113.202040",
    "longitude": "36.309119"
  },
  {
    "name": "八路军总司令部北村旧\n址",
    "cate": "近现代",
    "address": "山西省长治市潞城区八路军总司令部北村旧\n址",
    "latitude": "113.030683",
    "longitude": "36.429328"
  },
  {
    "name": "关村炎帝庙",
    "cate": "古建筑",
    "address": "山西省长治市潞州区关村炎帝庙",
    "latitude": "113.157847",
    "longitude": "36.218435"
  },
  {
    "name": "马厂崇教寺",
    "cate": "古建筑",
    "address": "山西省长治市潞州区马厂崇教寺",
    "latitude": "113.119452",
    "longitude": "36.343021"
  },
  {
    "name": "潞安府衙",
    "cate": "古建筑",
    "address": "山西省长治市潞州区潞安府衙",
    "latitude": "113.107027",
    "longitude": "36.187132"
  },
  {
    "name": "潞安府城隍庙",
    "cate": "古建筑",
    "address": "山西省长治市潞州区潞安府城隍庙",
    "latitude": "113.116378",
    "longitude": "36.183586"
  },
  {
    "name": "观音堂",
    "cate": "古建筑",
    "address": "山西省长治市潞州区观音堂",
    "latitude": "113.083102",
    "longitude": "36.228017"
  },
  {
    "name": "西青北大禹庙",
    "cate": "古建筑",
    "address": "山西省长治市平顺县西青北大禹庙",
    "latitude": "113.231060",
    "longitude": "36.250624"
  },
  {
    "name": "北社三蝼庙",
    "cate": "古建筑",
    "address": "山西省长治市平顺县北社三蝼庙",
    "latitude": "113.305020",
    "longitude": "36.251987"
  },
  {
    "name": "北社大禹庙",
    "cate": "古建筑",
    "address": "山西省长治市平顺县北社大禹庙",
    "latitude": "113.306411",
    "longitude": "36.254607"
  },
  {
    "name": "北甘泉圣母庙",
    "cate": "古建筑",
    "address": "山西省长治市平顺县北甘泉圣母庙",
    "latitude": "113.274111",
    "longitude": "36.229367"
  },
  {
    "name": "天台庵",
    "cate": "古建筑",
    "address": "山西省长治市平顺县天台庵",
    "latitude": "113.405249",
    "longitude": "36.383551"
  },
  {
    "name": "大云院",
    "cate": "古建筑",
    "address": "山西省长治市平顺县大云院",
    "latitude": "113.435859",
    "longitude": "36.200370"
  },
  {
    "name": "龙门寺",
    "cate": "古建筑",
    "address": "山西省长治市平顺县龙门寺",
    "latitude": "113.629250",
    "longitude": "36.390099"
  },
  {
    "name": "明惠大师塔",
    "cate": "古建筑",
    "address": "山西省长治市平顺县明惠大师塔",
    "latitude": "113.631073",
    "longitude": "36.234799"
  },
  {
    "name": "九天圣母庙",
    "cate": "古建筑",
    "address": "山西省长治市平顺县九天圣母庙",
    "latitude": "113.343325",
    "longitude": "36.225044"
  },
  {
    "name": "淳化寺",
    "cate": "古建筑",
    "address": "山西省长治市平顺县淳化寺",
    "latitude": "113.592674",
    "longitude": "36.353046"
  },
  {
    "name": "佛头寺",
    "cate": "古建筑",
    "address": "山西省长治市平顺县佛头寺",
    "latitude": "113.582410",
    "longitude": "36.357457"
  },
  {
    "name": "回龙寺",
    "cate": "古建筑",
    "address": "山西省长治市平顺县回龙寺",
    "latitude": "113.616833",
    "longitude": "36.346399"
  },
  {
    "name": "夏禹神祠",
    "cate": "古建筑",
    "address": "山西省长治市平顺县夏禹神祠",
    "latitude": "113.617810",
    "longitude": "36.345295"
  },
  {
    "name": "西社卫公庙",
    "cate": "古建筑",
    "address": "山西省长治市平顺县西社卫公庙",
    "latitude": "113.286960",
    "longitude": "36.253802"
  },
  {
    "name": "金灯寺石窟",
    "cate": "石窟寺\n及石刻",
    "address": "山西省长治市平顺县金灯寺石窟",
    "latitude": "113.435859",
    "longitude": "36.200370"
  },
  {
    "name": "南涅水洪教院",
    "cate": "古建筑",
    "address": "山西省长治市沁县南涅水洪教院",
    "latitude": "112.683538",
    "longitude": "36.926061"
  },
  {
    "name": "沁县大云院",
    "cate": "古建筑",
    "address": "山西省长治市沁县沁县大云院",
    "latitude": "112.699176",
    "longitude": "36.756152"
  },
  {
    "name": "普照寺大殿",
    "cate": "古建筑",
    "address": "山西省长治市沁县普照寺大殿",
    "latitude": "112.609452",
    "longitude": "36.745650"
  },
  {
    "name": "南涅水石刻",
    "cate": "石窟寺\n及石刻",
    "address": "山西省长治市沁县南涅水石刻",
    "latitude": "112.699176",
    "longitude": "36.756152"
  },
  {
    "name": "灵空山圣寿寺",
    "cate": "古建筑",
    "address": "山西省长治市沁源县灵空山圣寿寺",
    "latitude": "112.087702",
    "longitude": "36.592695"
  },
  {
    "name": "太岳军区司令部旧址",
    "cate": "近现代",
    "address": "山西省长治市沁源县太岳军区司令部旧址",
    "latitude": "112.350479",
    "longitude": "36.435016"
  },
  {
    "name": "北和炎帝庙",
    "cate": "古建筑",
    "address": "山西省长治市上党区北和炎帝庙",
    "latitude": "113.157847",
    "longitude": "36.218435"
  },
  {
    "name": "正觉寺",
    "cate": "古建筑",
    "address": "山西省长治市上党区正觉寺",
    "latitude": "113.017947",
    "longitude": "36.116080"
  },
  {
    "name": "长治玉皇观",
    "cate": "古建筑",
    "address": "山西省长治市上党区长治玉皇观",
    "latitude": "113.145703",
    "longitude": "35.964273"
  },
  {
    "name": "上党西岩寺塔",
    "cate": "古建筑",
    "address": "山西省长治市上党区上党西岩寺塔",
    "latitude": "113.051416",
    "longitude": "36.053104"
  },
  {
    "name": "上党长春玉皇庙",
    "cate": "古建筑",
    "address": "山西省长治市上党区上党长春玉皇庙",
    "latitude": "113.128029",
    "longitude": "35.940380"
  },
  {
    "name": "先师和尚舍利塔",
    "cate": "古建筑",
    "address": "山西省长治市屯留区先师和尚舍利塔",
    "latitude": "112.892301",
    "longitude": "36.316200"
  },
  {
    "name": "石室蓬莱宫",
    "cate": "古建筑",
    "address": "山西省长治市屯留区石室蓬莱宫",
    "latitude": "112.999456",
    "longitude": "36.383686"
  },
  {
    "name": "宝峰寺",
    "cate": "古建筑",
    "address": "山西省长治市屯留区宝峰寺",
    "latitude": "112.957807",
    "longitude": "36.381376"
  },
  {
    "name": "武乡真如寺",
    "cate": "古建筑",
    "address": "山西省长治市武乡县武乡真如寺",
    "latitude": "113.202432",
    "longitude": "36.736994"
  },
  {
    "name": "武乡大云寺",
    "cate": "古建筑",
    "address": "山西省长治市武乡县武乡大云寺",
    "latitude": "113.333145",
    "longitude": "36.828852"
  },
  {
    "name": "会仙观",
    "cate": "古建筑",
    "address": "山西省长治市武乡县会仙观",
    "latitude": "113.045576",
    "longitude": "36.751888"
  },
  {
    "name": "洪济院",
    "cate": "古建筑",
    "address": "山西省长治市武乡县洪济院",
    "latitude": "112.863960",
    "longitude": "36.837865"
  },
  {
    "name": "武乡福源院",
    "cate": "古建筑",
    "address": "山西省长治市武乡县武乡福源院",
    "latitude": "113.333145",
    "longitude": "36.828852"
  },
  {
    "name": "八路军总司令部旧址",
    "cate": "近现代",
    "address": "山西省长治市武乡县八路军总司令部旧址",
    "latitude": "112.863960",
    "longitude": "36.837865"
  },
  {
    "name": "襄垣五龙庙",
    "cate": "古建筑",
    "address": "山西省长治市襄垣县襄垣五龙庙",
    "latitude": "113.052731",
    "longitude": "36.537251"
  },
  {
    "name": "灵泽王庙",
    "cate": "古建筑",
    "address": "山西省长治市襄垣县灵泽王庙",
    "latitude": "113.051298",
    "longitude": "36.535629"
  },
  {
    "name": "昭泽王庙",
    "cate": "古建筑",
    "address": "山西省长治市襄垣县昭泽王庙",
    "latitude": "113.122396",
    "longitude": "36.211084"
  },
  {
    "name": "襄垣文庙",
    "cate": "古建筑",
    "address": "山西省长治市襄垣县襄垣文庙",
    "latitude": "113.051664",
    "longitude": "36.531050"
  },
  {
    "name": "襄垣永惠桥",
    "cate": "古建筑",
    "address": "山西省长治市襄垣县襄垣永惠桥",
    "latitude": "113.052976",
    "longitude": "36.536803"
  },
  {
    "name": "襄垣昭泽王庙",
    "cate": "古建筑",
    "address": "山西省长治市襄垣县襄垣昭泽王庙",
    "latitude": "113.041943",
    "longitude": "36.541293"
  },
  {
    "name": "小张碧云寺大殿",
    "cate": "古建筑",
    "address": "山西省长治市长子县小张碧云寺大殿",
    "latitude": "112.845207",
    "longitude": "36.171205"
  },
  {
    "name": "崇庆寺",
    "cate": "古建筑",
    "address": "山西省长治市长子县崇庆寺",
    "latitude": "112.965947",
    "longitude": "35.980325"
  },
  {
    "name": "布村玉皇庙",
    "cate": "古建筑",
    "address": "山西省长治市长子县布村玉皇庙",
    "latitude": "112.939678",
    "longitude": "36.007641"
  },
  {
    "name": "前万户汤王庙",
    "cate": "古建筑",
    "address": "山西省长治市长子县前万户汤王庙",
    "latitude": "112.891312",
    "longitude": "36.150058"
  },
  {
    "name": "下霍护国灵妮王庙",
    "cate": "古建筑",
    "address": "山西省长治市长子县下霍护国灵妮王庙",
    "latitude": "112.940273",
    "longitude": "36.089363"
  },
  {
    "name": "韩坊尧王庙大殿",
    "cate": "古建筑",
    "address": "山西省长治市长子县韩坊尧王庙大殿",
    "latitude": "112.911722",
    "longitude": "36.072667"
  },
  {
    "name": "长子崔府君庙大殿",
    "cate": "古建筑",
    "address": "山西省长治市长子县长子崔府君庙大殿",
    "latitude": "112.883428",
    "longitude": "36.119503"
  },
  {
    "name": "法兴寺",
    "cate": "古建筑",
    "address": "山西省长治市长子县法兴寺",
    "latitude": "112.877922",
    "longitude": "36.122258"
  },
  {
    "name": "义合三教堂",
    "cate": "古建筑",
    "address": "山西省长治市长子县义合三教堂",
    "latitude": "112.865710",
    "longitude": "36.023643"
  },
  {
    "name": "大中汉三峻庙",
    "cate": "古建筑",
    "address": "山西省长治市长子县大中汉三峻庙",
    "latitude": "112.811139",
    "longitude": "36.112810"
  },
  {
    "name": "中漳伏羲庙",
    "cate": "古建筑",
    "address": "山西省长治市长子县中漳伏羲庙",
    "latitude": "112.996708",
    "longitude": "36.118643"
  },
  {
    "name": "天王寺",
    "cate": "古建筑",
    "address": "山西省长治市长子县天王寺",
    "latitude": "112.880940",
    "longitude": "36.116985"
  },
  {
    "name": "长子文庙大成殿",
    "cate": "古建筑",
    "address": "山西省长治市长子县长子文庙大成殿",
    "latitude": "112.882858",
    "longitude": "36.119203"
  }
]